[
    {
        "Licensee": " KURE, INC. DISPENSARY SANTA FE THIRD LOCATION",
        "Address": "3354 Cerrillos Rd",
        "City": "Santa Fe",
        "State": "NM",
        "Zip": "87507",
        "Lat": "35.64835",
        "Long": "-106.00216",
        "TotalMedicalSales": 1048689.08,
        "TotalAdultUseSales": 1349856.54,
        "TotalSalesAll": 2398545.62
    },
    {
        "Licensee": "1912 CANNABIS COMPANY LLC - 10TH ST RETAIL",
        "Address": "1009 E 10th St",
        "City": "Alamogordo",
        "State": "NM",
        "Zip": "88310",
        "Lat": "32.90018",
        "Long": "-105.94957",
        "TotalMedicalSales": 2710.5,
        "TotalAdultUseSales": 4836.33,
        "TotalSalesAll": 7546.83
    },
    {
        "Licensee": "420 TEA TIME LLC/ RETAIL- ROVER BLVD",
        "Address": "35 Rover Blvd",
        "City": "White Rock",
        "State": "NM",
        "Zip": "87544",
        "Lat": "35.82772",
        "Long": "-106.20685",
        "TotalMedicalSales": 30938.11,
        "TotalAdultUseSales": 70410.99,
        "TotalSalesAll": 101349.1
    },
    {
        "Licensee": "505 FARMS ABQ LLC - LOMAS BLVD RETAIL",
        "Address": "5401 Lomas Blvd Ste A",
        "City": "Albuquerque",
        "State": "NM",
        "Zip": "87110",
        "Lat": "35.08765",
        "Long": "-106.58447",
        "TotalMedicalSales": 3899.97,
        "TotalAdultUseSales": 2139.99,
        "TotalSalesAll": 6039.97
    },
    {
        "Licensee": "505FOUR20 - N MAIN RETAIL",
        "Address": "221 N Main St",
        "City": "Belen",
        "State": "NM",
        "Zip": "87002",
        "Lat": "34.66224",
        "Long": "-106.77657",
        "TotalMedicalSales": 202080.84,
        "TotalAdultUseSales": 332128.18,
        "TotalSalesAll": 534209.02
    },
    {
        "Licensee": "A NICE DREAM INC - EDITH RETAIL",
        "Address": "5050 Edith",
        "City": "Albuquerque",
        "State": "NM",
        "Zip": "87107",
        "Lat": "35.13109",
        "Long": "-106.6273",
        "TotalMedicalSales": 1443.54,
        "TotalAdultUseSales": 396.51,
        "TotalSalesAll": 1840.05
    },
    {
        "Licensee": "AKESO BOTANICALS LLC",
        "Address": "200 Conway",
        "City": "Las Cruces",
        "State": "NM",
        "Zip": "88005",
        "Lat": "32.27726",
        "Long": "-106.76909",
        "TotalMedicalSales": 11099.72,
        "TotalAdultUseSales": 13107.66,
        "TotalSalesAll": 24207.38
    },
    {
        "Licensee": "ALL IN 107 MAIN ST LLC - MAIN ST, PORTALES",
        "Address": "107 S Main Ave",
        "City": "Portales",
        "State": "NM",
        "Zip": "88130",
        "Lat": "34.18653",
        "Long": "-103.33696",
        "TotalMedicalSales": 3001.41,
        "TotalAdultUseSales": 11119.37,
        "TotalSalesAll": 14120.78
    },
    {
        "Licensee": "AMNESIA DISPENSARY  ACCESSORIES",
        "Address": "2723 San Mateo Blvd NE, Suite B",
        "City": "Albuquerque",
        "State": "NM",
        "Zip": "87110",
        "Lat": "35.102909",
        "Long": "-106.58681",
        "TotalMedicalSales": 228271.84,
        "TotalAdultUseSales": 804191.95,
        "TotalSalesAll": 1032463.79
    },
    {
        "Licensee": "ANIMACANN INC - 20TH ST RETAIL",
        "Address": "1901 E 20th St",
        "City": "Farmington",
        "State": "NM",
        "Zip": "87401",
        "Lat": "36.74787",
        "Long": "-108.1817",
        "TotalMedicalSales": 19888.74,
        "TotalAdultUseSales": 211819.16,
        "TotalSalesAll": 231707.9
    },
    {
        "Licensee": "ASTRO BUDS LLC - MCCOMBS RD RETAIL",
        "Address": "308 McCombs Rd",
        "City": "Chaparral",
        "State": "NM",
        "Zip": "88081",
        "Lat": "32.01755",
        "Long": "-106.40944",
        "TotalMedicalSales": 120249.14,
        "TotalAdultUseSales": 1288250.98,
        "TotalSalesAll": 1408500.12
    },
    {
        "Licensee": "AYAS 2021 LLC - NORRIS ST RETAIL",
        "Address": "408 N Norris St",
        "City": "Clovis",
        "State": "NM",
        "Zip": "88101",
        "Lat": "34.40215",
        "Long": "-103.17924",
        "TotalMedicalSales": 89383.76,
        "TotalAdultUseSales": 356191.07,
        "TotalSalesAll": 445574.83
    },
    {
        "Licensee": "BEST DAZE",
        "Address": "1609 Isleta Blvd B",
        "City": "Albuquerque",
        "State": "NM",
        "Zip": "87105",
        "Lat": "35.05302",
        "Long": "-106.67845",
        "TotalMedicalSales": 54490.48,
        "TotalAdultUseSales": 97307.43,
        "TotalSalesAll": 151797.91
    },
    {
        "Licensee": "BEST DAZE",
        "Address": "800 Mills Ave",
        "City": "Las Vegas",
        "State": "NM",
        "Zip": "87701",
        "Lat": "35.605472",
        "Long": "-105.22287",
        "TotalMedicalSales": 429583.77,
        "TotalAdultUseSales": 640843.62,
        "TotalSalesAll": 1070427.39
    },
    {
        "Licensee": "BEST DAZE - FORMERLY GIVING TREE ORGANICS-PRODUCTION",
        "Address": "527  527B N. Riverside Dr.",
        "City": "Espanola",
        "State": "NM",
        "Zip": "87532",
        "Lat": "36.023218",
        "Long": "-106.06371",
        "TotalMedicalSales": 778252.25,
        "TotalAdultUseSales": 968352.38,
        "TotalSalesAll": 1746604.63
    },
    {
        "Licensee": "BEST DAZE RETAIL",
        "Address": "200 Coors Blvd NW",
        "City": "Albuquerque",
        "State": "NM",
        "Zip": "87105",
        "Lat": "35.08259",
        "Long": "-106.71051",
        "TotalMedicalSales": 393025.3,
        "TotalAdultUseSales": 791317.06,
        "TotalSalesAll": 1184342.36
    },
    {
        "Licensee": "BEST DAZE RETAIL",
        "Address": " 5212 4th St NW",
        "City": "Albuquerque",
        "State": "NM",
        "Zip": "87107",
        "Lat": "35.13857",
        "Long": "-106.641295",
        "TotalMedicalSales": 130894.33,
        "TotalAdultUseSales": 188814.03,
        "TotalSalesAll": 319708.36
    },
    {
        "Licensee": "BEST DAZE RETAIL",
        "Address": "5212 4th St NW",
        "City": "Albuquerque",
        "State": "NM",
        "Zip": "87107",
        "Lat": "35.13526",
        "Long": "-106.64154",
        "TotalMedicalSales": 104751.73,
        "TotalAdultUseSales": 163922.41,
        "TotalSalesAll": 268674.14
    },
    {
        "Licensee": "BEST DAZE RETAIL",
        "Address": "820 Mercer St",
        "City": "Santa Fe",
        "State": "NM",
        "Zip": "87505",
        "Lat": "35.679189",
        "Long": "-105.954293",
        "TotalMedicalSales": 750164.6,
        "TotalAdultUseSales": 1207172.55,
        "TotalSalesAll": 1957337.15
    },
    {
        "Licensee": "BEST DAZE RETAIL SANTA FE",
        "Address": "4641 Airport Rd",
        "City": "Santa Fe",
        "State": "NM",
        "Zip": "87507",
        "Lat": "35.638455",
        "Long": "-106.024415",
        "TotalMedicalSales": 1301409.91,
        "TotalAdultUseSales": 1561181.33,
        "TotalSalesAll": 2862591.24
    },
    {
        "Licensee": "BEST DAZE RETAIL SANTA FE",
        "Address": "7 Avenida Vista Grande",
        "City": "Santa Fe",
        "State": "NM",
        "Zip": "87508",
        "Lat": "35.539211",
        "Long": "-105.897789",
        "TotalMedicalSales": 435568.35,
        "TotalAdultUseSales": 454114.66,
        "TotalSalesAll": 889683.01
    },
    {
        "Licensee": "BIG RANCH CULTIVATION - HUDSON RETAIL",
        "Address": "909 N Hudson",
        "City": "Silver City",
        "State": "NM",
        "Zip": "88061",
        "Lat": "32.77514",
        "Long": "-108.2746",
        "TotalMedicalSales": 69,
        "TotalAdultUseSales": 94,
        "TotalSalesAll": 163
    },
    {
        "Licensee": "BIGHORN VENTURES- RETAIL",
        "Address": "536 Paseo del Pueblo Norte",
        "City": "Taos",
        "State": "NM",
        "Zip": "87571",
        "Lat": "36.41598",
        "Long": "-105.56975",
        "TotalMedicalSales": 0,
        "TotalAdultUseSales": 195,
        "TotalSalesAll": 195
    },
    {
        "Licensee": "BOSQUE BUDS LLC/ RETAIL 6TH ST NW",
        "Address": "2505 6th St NW",
        "City": "Albuquerque",
        "State": "NM",
        "Zip": "87102",
        "Lat": "35.11043",
        "Long": "-106.64875",
        "TotalMedicalSales": 4169.89,
        "TotalAdultUseSales": 9496.71,
        "TotalSalesAll": 13666.6
    },
    {
        "Licensee": "BOUTIQUE HIGH - LOMAS BLVD RETAIL",
        "Address": "13025 Lomas Blvd NE Ste B",
        "City": "Albuquerque",
        "State": "NM",
        "Zip": "87112",
        "Lat": "35.087592",
        "Long": "-106.542626",
        "TotalMedicalSales": 48099.37,
        "TotalAdultUseSales": 172132.3,
        "TotalSalesAll": 220231.66
    },
    {
        "Licensee": "BRYANS GREENCARE RETAIL",
        "Address": " 3108 North Main",
        "City": "Roswell",
        "State": "NM",
        "Zip": "88201",
        "Lat": "33.629001",
        "Long": "-104.553122",
        "TotalMedicalSales": 19487.7,
        "TotalAdultUseSales": 62428.35,
        "TotalSalesAll": 81916.05
    },
    {
        "Licensee": "BRYANS GREENCARE RETAIL",
        "Address": "2117 Sudderth",
        "City": "Ruidoso",
        "State": "NM",
        "Zip": "88345",
        "Lat": "33.33048",
        "Long": "-105.66713",
        "TotalMedicalSales": 14162.92,
        "TotalAdultUseSales": 95668,
        "TotalSalesAll": 109830.92
    },
    {
        "Licensee": "BRYANS GREENCARE RETAIL",
        "Address": " 2117 Sudderth",
        "City": "Ruidoso",
        "State": "NM",
        "Zip": "88345",
        "Lat": "33.328558",
        "Long": "-105.663388",
        "TotalMedicalSales": 19904.7,
        "TotalAdultUseSales": 141102.28,
        "TotalSalesAll": 161006.98
    },
    {
        "Licensee": "BRYANS GREENCARE RETAIL",
        "Address": "201 North Grimes",
        "City": "Hobbs",
        "State": "NM",
        "Zip": "88240",
        "Lat": "32.714508",
        "Long": "-103.144847",
        "TotalMedicalSales": 150821.5,
        "TotalAdultUseSales": 1299094.46,
        "TotalSalesAll": 1449915.96
    },
    {
        "Licensee": "BRYANS GREENCARE RETAIL",
        "Address": "3108 North Main",
        "City": "Roswell",
        "State": "NM",
        "Zip": "88201",
        "Lat": "33.629001",
        "Long": "-104.553122",
        "TotalMedicalSales": 17943.26,
        "TotalAdultUseSales": 126267.12,
        "TotalSalesAll": 144210.38
    },
    {
        "Licensee": "BUD BOARD DISPENSARY LLC - PIERCE RETAIL",
        "Address": "618 W Pierce",
        "City": "Carlsbad",
        "State": "NM",
        "Zip": "88220",
        "Lat": "32.439778",
        "Long": "-104.255908",
        "TotalMedicalSales": 402330.42,
        "TotalAdultUseSales": 1686317.32,
        "TotalSalesAll": 2088647.74
    },
    {
        "Licensee": "BUD BROTHERS LLC - HOBBS RETAIL",
        "Address": "2702 W Marland Blvd",
        "City": "Hobbs",
        "State": "NM",
        "Zip": "88240",
        "Lat": "32.69685",
        "Long": "-103.17012",
        "TotalMedicalSales": 1563.04,
        "TotalAdultUseSales": 207032.06,
        "TotalSalesAll": 208595.1
    },
    {
        "Licensee": "BUD IN BUD OUT LLC",
        "Address": "915 E Main St",
        "City": "Tucumcari",
        "State": "NM",
        "Zip": "88401",
        "Lat": "35.179079",
        "Long": "-103.725539",
        "TotalMedicalSales": 35969.21,
        "TotalAdultUseSales": 116434.19,
        "TotalSalesAll": 152403.4
    },
    {
        "Licensee": "BUDDER PROS",
        "Address": "121 US Route 66",
        "City": "Moriarty",
        "State": "NM",
        "Zip": "87035",
        "Lat": "34.99005",
        "Long": "-106.049189",
        "TotalMedicalSales": 61415.67,
        "TotalAdultUseSales": 160813.07,
        "TotalSalesAll": 222228.74
    },
    {
        "Licensee": "BUDDING HOPE",
        "Address": "1514 Coors Blvd Ste B",
        "City": "Albuquerque",
        "State": "NM",
        "Zip": "87121",
        "Lat": "35.191492",
        "Long": "-106.657001",
        "TotalMedicalSales": 561240.95,
        "TotalAdultUseSales": 601939.95,
        "TotalSalesAll": 1163180.9
    },
    {
        "Licensee": "BUDDING HOPE - SAN MATEO RETAIL",
        "Address": "2621 San Mateo Blvd NE Ste B",
        "City": "Albuquerque",
        "State": "NM",
        "Zip": "87110",
        "Lat": "35.102909",
        "Long": "-106.58681",
        "TotalMedicalSales": 547218.77,
        "TotalAdultUseSales": 462931.08,
        "TotalSalesAll": 1010149.85
    },
    {
        "Licensee": "BUDDING INDUSTRIES LLC - BURRO AVE RETAIL",
        "Address": "504 Burro Ave",
        "City": "Cloudcroft",
        "State": "NM",
        "Zip": "88317",
        "Lat": "32.95855",
        "Long": "-105.739787",
        "TotalMedicalSales": 35469.42,
        "TotalAdultUseSales": 254789.49,
        "TotalSalesAll": 290258.91
    },
    {
        "Licensee": "BUFFALO BUD FARMING CO LLC - RETAIL",
        "Address": "910 N Pope St",
        "City": "Silver City",
        "State": "NM",
        "Zip": "88061",
        "Lat": "32.77495",
        "Long": "-108.27596",
        "TotalMedicalSales": 86419.82,
        "TotalAdultUseSales": 121293.92,
        "TotalSalesAll": 207713.74
    },
    {
        "Licensee": "BX3 ENTERPRISES LLC - RETAIL",
        "Address": "100 Mountain Park",
        "City": "Albuquerque",
        "State": "NM",
        "Zip": "87114",
        "Lat": "35.19464",
        "Long": "-106.60708",
        "TotalMedicalSales": 1301.29,
        "TotalAdultUseSales": 1683.85,
        "TotalSalesAll": 2985.14
    },
    {
        "Licensee": "C.G. CORRIGAN DISPENSERY",
        "Address": "1400 Main St. STE D",
        "City": "Los Lunas",
        "State": "NM",
        "Zip": "87031",
        "Lat": "34.804828",
        "Long": "-106.705262",
        "TotalMedicalSales": 816081.56,
        "TotalAdultUseSales": 834491.99,
        "TotalSalesAll": 1650573.55
    },
    {
        "Licensee": "C.G. CORRIGAN-SANTA FE",
        "Address": "802 Early St.",
        "City": "Santa Fe",
        "State": "NM",
        "Zip": "87505",
        "Lat": "35.67799",
        "Long": "-105.95252",
        "TotalMedicalSales": 494003.34,
        "TotalAdultUseSales": 453842.55,
        "TotalSalesAll": 947845.89
    },
    {
        "Licensee": "CANNABIAS",
        "Address": "1002 W Pierce",
        "City": "Carlsbad",
        "State": "NM",
        "Zip": "88220",
        "Lat": "32.439778",
        "Long": "-104.255908",
        "TotalMedicalSales": 57995.77,
        "TotalAdultUseSales": 206932,
        "TotalSalesAll": 264927.77
    },
    {
        "Licensee": "CANNABIAS",
        "Address": "1912 N Grimes",
        "City": "Hobbs",
        "State": "NM",
        "Zip": "88240",
        "Lat": "32.72014",
        "Long": "-103.14454",
        "TotalMedicalSales": 157229.75,
        "TotalAdultUseSales": 778868.21,
        "TotalSalesAll": 936097.96
    },
    {
        "Licensee": "CANNABLISS - MADRID RETAIL",
        "Address": "2883 A NM 14",
        "City": "Madrid",
        "State": "NM",
        "Zip": "87010",
        "Lat": "35.417493",
        "Long": "-106.137686",
        "TotalMedicalSales": 32359.64,
        "TotalAdultUseSales": 225478.53,
        "TotalSalesAll": 257838.17
    },
    {
        "Licensee": "CANNACEUTICS DISPENSARY",
        "Address": "4316 Carlisle Blvd. NE, Suite D",
        "City": "Albuquerque",
        "State": "NM",
        "Zip": "87107",
        "Lat": "35.117814",
        "Long": "-106.604084",
        "TotalMedicalSales": 614344.86,
        "TotalAdultUseSales": 0,
        "TotalSalesAll": 614344.86
    },
    {
        "Licensee": "CANNACOLLC - 4TH ST RETAIL",
        "Address": "4212 4th St NW",
        "City": "Albuquerque",
        "State": "NM",
        "Zip": "87107",
        "Lat": "35.13857",
        "Long": "-106.641295",
        "TotalMedicalSales": 19189.46,
        "TotalAdultUseSales": 70789.25,
        "TotalSalesAll": 89978.71
    },
    {
        "Licensee": "CANNAVERSE - NEVADA AVE RETAIL",
        "Address": "2305 Nevada Ave",
        "City": "Las Cruces",
        "State": "NM",
        "Zip": "88001",
        "Lat": "32.30317",
        "Long": "-106.762334",
        "TotalMedicalSales": 101542.63,
        "TotalAdultUseSales": 227423.84,
        "TotalSalesAll": 328966.5
    },
    {
        "Licensee": "CANVAS ORGANICS ENTERPRISES LLC",
        "Address": "3000 San Pedro Drive NE Suite B",
        "City": "Albuquerque",
        "State": "NM",
        "Zip": "87110",
        "Lat": "35.084103",
        "Long": "-106.650985",
        "TotalMedicalSales": 169620.51,
        "TotalAdultUseSales": 403116.6,
        "TotalSalesAll": 572737.1
    },
    {
        "Licensee": "CARDIEL BOTANICA LTD CO - PALOMAS PL RETAIL",
        "Address": "100 Palomas Pl Ste B-2",
        "City": "Sunland Park",
        "State": "NM",
        "Zip": "88063",
        "Lat": "31.81202",
        "Long": "-106.59384",
        "TotalMedicalSales": 21669.41,
        "TotalAdultUseSales": 129172.94,
        "TotalSalesAll": 150842.35
    },
    {
        "Licensee": "CAROLINAS CHOICE LLC/ RETAIL ENTERPRISE RD",
        "Address": "1404 Enterprise Rd",
        "City": "Socorro",
        "State": "NM",
        "Zip": "87801",
        "Lat": "34.02840651490425",
        "Long": "-106.92064046859741",
        "TotalMedicalSales": 0,
        "TotalAdultUseSales": 120,
        "TotalSalesAll": 120
    },
    {
        "Licensee": "CAROLINAS CHOICE, LLC - COPPER AVE RETAIL",
        "Address": "13600 Copper Ave NE",
        "City": "Albuquerque",
        "State": "NM",
        "Zip": "87123",
        "Lat": "35.07869",
        "Long": "-106.49779",
        "TotalMedicalSales": 19519.45,
        "TotalAdultUseSales": 57959.13,
        "TotalSalesAll": 77478.58
    },
    {
        "Licensee": "CARVER FAMILY FARM- RETAIL MICRO",
        "Address": " 8917 Adams ST NE",
        "City": "Albuquerque",
        "State": "NM",
        "Zip": "87113",
        "Lat": "35.083681",
        "Long": "-106.594187",
        "TotalMedicalSales": 307283.32,
        "TotalAdultUseSales": 284413.35,
        "TotalSalesAll": 591696.67
    },
    {
        "Licensee": "CARVER FAMILY FARM- RETAIL MICRO",
        "Address": "8917 Adams ST NE",
        "City": "Albuquerque",
        "State": "NM",
        "Zip": "87113",
        "Lat": "35.18765",
        "Long": "-106.59498",
        "TotalMedicalSales": 238415.65,
        "TotalAdultUseSales": 282145.67,
        "TotalSalesAll": 520561.32
    },
    {
        "Licensee": "CAVE CITY CANNABIS CO LLP - CHURCH ST RETAIL",
        "Address": "108 E Church St",
        "City": "Carlsbad",
        "State": "NM",
        "Zip": "88220",
        "Lat": "32.42869",
        "Long": "-104.2256",
        "TotalMedicalSales": 117359.64,
        "TotalAdultUseSales": 229650.06,
        "TotalSalesAll": 347009.7
    },
    {
        "Licensee": "CCC HOLDINGS, LLC",
        "Address": "102 Mexican Avenue, Unit 420",
        "City": "Cloudcroft",
        "State": "NM",
        "Zip": "88317",
        "Lat": "32.95962",
        "Long": "-105.74347",
        "TotalMedicalSales": 49303,
        "TotalAdultUseSales": 301380.06,
        "TotalSalesAll": 350683.06
    },
    {
        "Licensee": "CG CORRIGAN DISPENSARY - ALBUQUERQUE",
        "Address": "6614 Gulton Ct. NE",
        "City": "Albuquerque",
        "State": "NM",
        "Zip": "87109",
        "Lat": "35.15341",
        "Long": "-106.59908",
        "TotalMedicalSales": 643203.14,
        "TotalAdultUseSales": 477820.55,
        "TotalSalesAll": 1121023.69
    },
    {
        "Licensee": "CG CORRIGAN DISPENSARY - PLACITAS",
        "Address": "30 E Frontage Road, Suite D",
        "City": "Placitas",
        "State": "NM",
        "Zip": "87403",
        "Lat": "35.324364",
        "Long": "-106.528674",
        "TotalMedicalSales": 296826.64,
        "TotalAdultUseSales": 182377.43,
        "TotalSalesAll": 479204.07
    },
    {
        "Licensee": "CHADCOR HOLDINGS NM- RETAIL",
        "Address": " 2240 E Lohman Ave., Unit 1",
        "City": "Las Cruces",
        "State": "NM",
        "Zip": "88001",
        "Lat": "32.31232",
        "Long": "-106.75266",
        "TotalMedicalSales": 111873.58,
        "TotalAdultUseSales": 216108.31,
        "TotalSalesAll": 327981.89
    },
    {
        "Licensee": "CHILLAX GLASS - SUDDERTH RD RETAIL",
        "Address": "200 Sudderth Rd Unit A  B",
        "City": "Ruidoso",
        "State": "NM",
        "Zip": "88345",
        "Lat": "33.33158",
        "Long": "-105.673099",
        "TotalMedicalSales": 20161.83,
        "TotalAdultUseSales": 61993.5,
        "TotalSalesAll": 82155.33
    },
    {
        "Licensee": "CHRONIC KINGS LLC - LOMAS BLVD RETAIL",
        "Address": "400 Lomas Blvd NE",
        "City": "Albuquerque",
        "State": "NM",
        "Zip": "87102",
        "Lat": "35.09048",
        "Long": "-106.6454",
        "TotalMedicalSales": 66129.21,
        "TotalAdultUseSales": 478543.06,
        "TotalSalesAll": 544672.28
    },
    {
        "Licensee": "CINDER NEW MEXICO LLC - 3RD ST ABQ RETAIL",
        "Address": "800 3rd St NW",
        "City": "Albuquerque",
        "State": "NM",
        "Zip": "87102",
        "Lat": "35.092916",
        "Long": "-106.648801",
        "TotalMedicalSales": 49201.89,
        "TotalAdultUseSales": 129582.69,
        "TotalSalesAll": 178784.58
    },
    {
        "Licensee": "CLOUD 9 ZENDUSTRIES",
        "Address": "5200 Constitution Avenue NE",
        "City": "Albuquerque",
        "State": "NM",
        "Zip": "87110",
        "Lat": "35.09444",
        "Long": "-106.58731",
        "TotalMedicalSales": 5003.44,
        "TotalAdultUseSales": 52302.61,
        "TotalSalesAll": 57306.05
    },
    {
        "Licensee": "CMC CANNABIS DISPENSARY LLC/ RETAIL W HISTORIC HWY 66",
        "Address": "611 W Historic HWY 66",
        "City": "Gallup",
        "State": "NM",
        "Zip": "87301",
        "Lat": "35.52608",
        "Long": "-108.74848",
        "TotalMedicalSales": 20233.81,
        "TotalAdultUseSales": 0,
        "TotalSalesAll": 20233.81
    },
    {
        "Licensee": "COMPASSIONATE DISTRIBUTORS ALAMOGORDO",
        "Address": "2617 N. White Sands Blvd. Ste. D",
        "City": "Alamogordo",
        "State": "NM",
        "Zip": "88310",
        "Lat": "32.92334",
        "Long": "-105.96109",
        "TotalMedicalSales": 419357.76,
        "TotalAdultUseSales": 387309.07,
        "TotalSalesAll": 806666.83
    },
    {
        "Licensee": "COMPASSIONATE DISTRIBUTORS DISPENSARY - ROSWELL",
        "Address": "117 West Walnut",
        "City": "Roswell",
        "State": "NM",
        "Zip": "88203",
        "Lat": "33.39214",
        "Long": "-104.52373",
        "TotalMedicalSales": 380395.05,
        "TotalAdultUseSales": 283108.83,
        "TotalSalesAll": 663503.87
    },
    {
        "Licensee": "COMPASSIONATE DISTRIBUTORS DISPENSARY - RUIDOSO",
        "Address": "1100 Sudderth Dr.",
        "City": "Ruidoso",
        "State": "NM",
        "Zip": "88345",
        "Lat": "33.3255",
        "Long": "-105.65858",
        "TotalMedicalSales": 315210.45,
        "TotalAdultUseSales": 475492.96,
        "TotalSalesAll": 790703.41
    },
    {
        "Licensee": "COMPASSIONATE DISTRIBUTORS DISPENSARY - RUIDOSO",
        "Address": "1216 Mechem Dr.",
        "City": "Ruidoso",
        "State": "NM",
        "Zip": "88345",
        "Lat": "33.342463",
        "Long": "-105.674117",
        "TotalMedicalSales": 50224.21,
        "TotalAdultUseSales": 712,
        "TotalSalesAll": 50936.21
    },
    {
        "Licensee": "COMPASSIONATE DISTRIBUTORS DISPENSARY-CARLSBAD",
        "Address": "1704 S. Canal Street",
        "City": "Carlsbad",
        "State": "NM",
        "Zip": "88220",
        "Lat": "32.38989",
        "Long": "-104.218898",
        "TotalMedicalSales": 328011.1,
        "TotalAdultUseSales": 667772.72,
        "TotalSalesAll": 995783.82
    },
    {
        "Licensee": "COMPASSIONATE DISTRIBUTORS HOBBS",
        "Address": "1822 S. Dal Paso",
        "City": "Hobbs",
        "State": "NM",
        "Zip": "88240",
        "Lat": "32.6824",
        "Long": "-103.1269",
        "TotalMedicalSales": 149016.65,
        "TotalAdultUseSales": 1046719.08,
        "TotalSalesAll": 1195735.73
    },
    {
        "Licensee": "COMPASSIONATE DISTRIBUTORS INC",
        "Address": "1321 N Pile St",
        "City": "Clovis",
        "State": "NM",
        "Zip": "88101",
        "Lat": "34.419312",
        "Long": "-103.20401",
        "TotalMedicalSales": 215805.92,
        "TotalAdultUseSales": 227414.27,
        "TotalSalesAll": 443220.19
    },
    {
        "Licensee": "COMPASSIONATE DISTRIBUTORS INCORPORATED",
        "Address": "401 Anthony Dr",
        "City": "Anthony",
        "State": "NM",
        "Zip": "88021",
        "Lat": "32.00367",
        "Long": "-106.60652",
        "TotalMedicalSales": 37935.36,
        "TotalAdultUseSales": 107440.65,
        "TotalSalesAll": 145376.01
    },
    {
        "Licensee": "COMPASSIONATE DISTRIBUTORS INCORPORATED",
        "Address": "338 Paseo Del Pueblo Sur Unit 2",
        "City": "Taos",
        "State": "NM",
        "Zip": "87571",
        "Lat": "36.407249",
        "Long": "-105.573066",
        "TotalMedicalSales": 99809.54,
        "TotalAdultUseSales": 206833.34,
        "TotalSalesAll": 306642.88
    },
    {
        "Licensee": "COMPASSIONATE DISTRIBUTORS INCORPORATED",
        "Address": "1925 Appaloosa Ste 4-5",
        "City": "Sunland Park",
        "State": "NM",
        "Zip": "88063",
        "Lat": "31.796496",
        "Long": "-106.579989",
        "TotalMedicalSales": 1202,
        "TotalAdultUseSales": 0,
        "TotalSalesAll": 1202
    },
    {
        "Licensee": "COMPASSIONATE DISTRIBUTORS INCORPORATED - DON DIEGO RETAIL",
        "Address": "713 Don Diego Ave",
        "City": "Santa Fe",
        "State": "NM",
        "Zip": "87505",
        "Lat": "35.671007",
        "Long": "-105.949429",
        "TotalMedicalSales": 80312.23,
        "TotalAdultUseSales": 133023.23,
        "TotalSalesAll": 213335.46
    },
    {
        "Licensee": "COMPASSIONATE DISTRIBUTORS INCORPORATED/ RETAIL 2ND STREET NW",
        "Address": "1100 2nd Street NW",
        "City": "Albuquerque",
        "State": "NM",
        "Zip": "87102",
        "Lat": "35.09385",
        "Long": "-106.64729",
        "TotalMedicalSales": 14114.25,
        "TotalAdultUseSales": 18435.55,
        "TotalSalesAll": 32549.8
    },
    {
        "Licensee": "COMPASSIONATE DISTRIBUTORS INCORPORATED/ RETAIL LOMAS BLVD NW",
        "Address": "1520 Lomas Blvd NW",
        "City": "Albuquerque",
        "State": "NM",
        "Zip": "87102",
        "Lat": "35.09052",
        "Long": "-106.62624",
        "TotalMedicalSales": 4417,
        "TotalAdultUseSales": 5522.69,
        "TotalSalesAll": 9939.69
    },
    {
        "Licensee": "COMPASSIONATE DISTRIBUTORS LAS CRUCES",
        "Address": "609 E Amador Ave",
        "City": "Las Cruces",
        "State": "NM",
        "Zip": "88011",
        "Lat": "32.30958",
        "Long": "-106.763195",
        "TotalMedicalSales": 328103.78,
        "TotalAdultUseSales": 329838.53,
        "TotalSalesAll": 657942.31
    },
    {
        "Licensee": "COMPASSIONATE DISTRIBUTORS OSO CANNABIS RETAIL",
        "Address": "17839-A US 84/285",
        "City": "Santa Fe",
        "State": "NM",
        "Zip": "87056",
        "Lat": "35.86753",
        "Long": "-106.00331",
        "TotalMedicalSales": 120,
        "TotalAdultUseSales": 0,
        "TotalSalesAll": 120
    },
    {
        "Licensee": "COMPASSIONATE DISTRIBUTORS PORTALES",
        "Address": "1429 S. Avenue D",
        "City": "Portales",
        "State": "NM",
        "Zip": "88130",
        "Lat": "34.17623",
        "Long": "-103.33456",
        "TotalMedicalSales": 232954.73,
        "TotalAdultUseSales": 181481.39,
        "TotalSalesAll": 414436.12
    },
    {
        "Licensee": "CORRALES HEMPORIUM LLC/ RETAIL CORRALES ROAD",
        "Address": "4484 Corrales Road",
        "City": "Corrales",
        "State": "NM",
        "Zip": "87048",
        "Lat": "35.22469",
        "Long": "-106.61432",
        "TotalMedicalSales": 2812.95,
        "TotalAdultUseSales": 6982.46,
        "TotalSalesAll": 9795.41
    },
    {
        "Licensee": "COWBOY VERDE LLC - MABRY DR, CLOVIS RETAIL",
        "Address": "1605 Mabry Dr",
        "City": "Clovis",
        "State": "NM",
        "Zip": "88101",
        "Lat": "34.395166",
        "Long": "-103.160806",
        "TotalMedicalSales": 68139.2,
        "TotalAdultUseSales": 712324.64,
        "TotalSalesAll": 780463.84
    },
    {
        "Licensee": "COWBOY VERDE LLC/ RETAIL S MAIN",
        "Address": "211 S Main",
        "City": "Belen",
        "State": "NM",
        "Zip": "87002",
        "Lat": "34.6596",
        "Long": "-106.77777",
        "TotalMedicalSales": 7911.87,
        "TotalAdultUseSales": 25628.48,
        "TotalSalesAll": 33540.34
    },
    {
        "Licensee": "COWBOY VERDE LLC/ RETAIL US-54",
        "Address": "124 US-54",
        "City": "Logan",
        "State": "NM",
        "Zip": "88426",
        "Lat": "35.373634",
        "Long": "-103.406929",
        "TotalMedicalSales": 11465.97,
        "TotalAdultUseSales": 48016.44,
        "TotalSalesAll": 59482.41
    },
    {
        "Licensee": "CRANIUM EXTRACTS LLC",
        "Address": "4501 4th Street NW, Suite E",
        "City": "Albuquerque",
        "State": "NM",
        "Zip": "87107",
        "Lat": "35.12891",
        "Long": "-106.64335",
        "TotalMedicalSales": 48097.57,
        "TotalAdultUseSales": 102182.64,
        "TotalSalesAll": 150280.21
    },
    {
        "Licensee": "DEEP SKY CANNABIS LLC - LUANA ST RETAIL",
        "Address": "1320 Luana St",
        "City": "Santa Fe",
        "State": "NM",
        "Zip": "87505",
        "Lat": "35.661898",
        "Long": "-105.983216",
        "TotalMedicalSales": 145083.34,
        "TotalAdultUseSales": 322288.78,
        "TotalSalesAll": 467372.12
    },
    {
        "Licensee": "DEMING CANNABIS COMPANY LLC - SPRUCE ST RETAIL",
        "Address": "1113 W Spruce St",
        "City": "Deming",
        "State": "NM",
        "Zip": "88030",
        "Lat": "32.26651",
        "Long": "-107.77133",
        "TotalMedicalSales": 95870.94,
        "TotalAdultUseSales": 218534.1,
        "TotalSalesAll": 314405.04
    },
    {
        "Licensee": "DEMING GANJA LOUNGE LLC/ RETAIL NORTH 8TH STREET SUITE B",
        "Address": "119 North 8th Street Suite B",
        "City": "Deming",
        "State": "NM",
        "Zip": "88030",
        "Lat": "32.26851",
        "Long": "-107.76852",
        "TotalMedicalSales": 2388,
        "TotalAdultUseSales": 3231.5,
        "TotalSalesAll": 5619.5
    },
    {
        "Licensee": "DESERT FLOWER LLC - AZTEC RD RETAIL",
        "Address": "1308 W Aztec Blvd",
        "City": "Aztec",
        "State": "NM",
        "Zip": "87410",
        "Lat": "36.82656",
        "Long": "-108.00874",
        "TotalMedicalSales": 0,
        "TotalAdultUseSales": 23828.7,
        "TotalSalesAll": 23828.7
    },
    {
        "Licensee": "DISPENSARY NEAR ME/ RETAIL NM47",
        "Address": "2384 NM 47",
        "City": "Belen",
        "State": "NM",
        "Zip": "87002",
        "Lat": "34.66075",
        "Long": "-106.73686",
        "TotalMedicalSales": 55585.5,
        "TotalAdultUseSales": 129158.5,
        "TotalSalesAll": 184744
    },
    {
        "Licensee": "DISTINGUISHED DISPENSARY LLC - ENGLISH RD RETAIL",
        "Address": "4601 English Rd",
        "City": "Farmington",
        "State": "NM",
        "Zip": "87402",
        "Lat": "36.77012",
        "Long": "-108.14932",
        "TotalMedicalSales": 25073.57,
        "TotalAdultUseSales": 484001.32,
        "TotalSalesAll": 509074.89
    },
    {
        "Licensee": "DOWNTOWN DISPENSARY TUCUMCARI",
        "Address": "113 S 2nd St",
        "City": "Tucumcari",
        "State": "NM",
        "Zip": "88401",
        "Lat": "35.17855",
        "Long": "-103.72632",
        "TotalMedicalSales": 73644.86,
        "TotalAdultUseSales": 331681.23,
        "TotalSalesAll": 405326.09
    },
    {
        "Licensee": "DUKE CITY HERBS - CENTRAL AVE RETAIL",
        "Address": "4012 Central Ave SE",
        "City": "Albuquerque",
        "State": "NM",
        "Zip": "87108",
        "Lat": "35.07902",
        "Long": "-106.59929",
        "TotalMedicalSales": 25,
        "TotalAdultUseSales": 928.53,
        "TotalSalesAll": 953.53
    },
    {
        "Licensee": "DULCE CANNABIS",
        "Address": "2000 Carlisle Blvd NE Suite B",
        "City": "Albuquerque",
        "State": "NM",
        "Zip": "87110",
        "Lat": "35.10123",
        "Long": "-106.60386",
        "TotalMedicalSales": 99755.98,
        "TotalAdultUseSales": 374127.31,
        "TotalSalesAll": 473883.29
    },
    {
        "Licensee": "EARL AND TOM LLC - MAIN ST, CLOVIS RETAIL",
        "Address": "106 S Main St",
        "City": "Clovis",
        "State": "NM",
        "Zip": "88101",
        "Lat": "34.382582",
        "Long": "-103.205293",
        "TotalMedicalSales": 190900.62,
        "TotalAdultUseSales": 794694.9,
        "TotalSalesAll": 985595.52
    },
    {
        "Licensee": "ELEMENTS DISPENSARY LLC/ RETAIL LOMAS BLVD NE",
        "Address": "9901 Lomas Blvd NE",
        "City": "Albuquerque",
        "State": "NM",
        "Zip": "87112",
        "Lat": "35.0876",
        "Long": "-106.53661",
        "TotalMedicalSales": 16680.57,
        "TotalAdultUseSales": 33365.94,
        "TotalSalesAll": 50046.51
    },
    {
        "Licensee": "ELEVATION 6420 LLC - MECHEM DR - RETAIL",
        "Address": "101 Mechem Dr",
        "City": "Ruidoso",
        "State": "NM",
        "Zip": "88345",
        "Lat": "33.33461",
        "Long": "-105.68155",
        "TotalMedicalSales": 405418.81,
        "TotalAdultUseSales": 1159259.8,
        "TotalSalesAll": 1564678.59
    },
    {
        "Licensee": "ELEVATION 6420 LLC - SUDDERTH DR - RETAIL",
        "Address": "2553 Sudderth Dr",
        "City": "Ruidoso",
        "State": "NM",
        "Zip": "88345",
        "Lat": "33.328558",
        "Long": "-105.663388",
        "TotalMedicalSales": 19147.86,
        "TotalAdultUseSales": 105637.81,
        "TotalSalesAll": 124785.67
    },
    {
        "Licensee": "ELKHORN RETAIL LLC/ RETAIL 98TH ST SW",
        "Address": "101 98th St SW",
        "City": "Albuquerque",
        "State": "NM",
        "Zip": "87121",
        "Lat": "35.07343",
        "Long": "-106.74322",
        "TotalMedicalSales": 187679.47,
        "TotalAdultUseSales": 302023.9,
        "TotalSalesAll": 489703.37
    },
    {
        "Licensee": "ELKHORN RETAIL LLC/ RETAIL CERRILLOS ROAD",
        "Address": "1829 Cerrillos Road",
        "City": "Santa Fe",
        "State": "NM",
        "Zip": "87505",
        "Lat": "35.66517",
        "Long": "-105.97311",
        "TotalMedicalSales": 656967.68,
        "TotalAdultUseSales": 880747.29,
        "TotalSalesAll": 1537714.97
    },
    {
        "Licensee": "ELKHORN RETAIL LLC/ RETAIL MONTGOMERY ROAD",
        "Address": "9132 Montgomery Road",
        "City": "Albuquerque",
        "State": "NM",
        "Zip": "87111",
        "Lat": "35.13036",
        "Long": "-106.54066",
        "TotalMedicalSales": 145302.96,
        "TotalAdultUseSales": 108016.55,
        "TotalSalesAll": 253319.51
    },
    {
        "Licensee": "ELKHORN RETAIL LLC/ RETAIL N GUADALUPE",
        "Address": "604 N Guadalupe",
        "City": "Santa Fe",
        "State": "NM",
        "Zip": "87501",
        "Lat": "35.69513",
        "Long": "-105.95089",
        "TotalMedicalSales": 74996.33,
        "TotalAdultUseSales": 167666.93,
        "TotalSalesAll": 242663.26
    },
    {
        "Licensee": "ELKHORN RETAIL LLC/ RETAIL OLD SANTA FE TRAIL",
        "Address": "507 Old Santa Fe Trail",
        "City": "Santa Fe",
        "State": "NM",
        "Zip": "87505",
        "Lat": "35.68108",
        "Long": "-105.93751",
        "TotalMedicalSales": 161032.53,
        "TotalAdultUseSales": 364644.68,
        "TotalSalesAll": 525677.21
    },
    {
        "Licensee": "ELKHORN RETAIL LLC/ RETAIL PASEO DEL PUEBLO SUR SUITE C",
        "Address": "925 Paseo Del Pueblo Sur Suite C",
        "City": "Taos",
        "State": "NM",
        "Zip": "87571",
        "Lat": "36.38625",
        "Long": "-105.58473",
        "TotalMedicalSales": 73586.37,
        "TotalAdultUseSales": 199121.55,
        "TotalSalesAll": 272707.92
    },
    {
        "Licensee": "ELKHORN RETAIL LLC/ RETAIL PASEO DEL SUR SUITE A",
        "Address": "1033 Paseo Del Sur Suite A",
        "City": "Taos",
        "State": "NM",
        "Zip": "87571",
        "Lat": "36.37651",
        "Long": "-105.5535",
        "TotalMedicalSales": 231300.96,
        "TotalAdultUseSales": 261071.88,
        "TotalSalesAll": 492372.84
    },
    {
        "Licensee": "ELKHORN RETAIL LLC/ RETAIL SAN PEDRO DR NE",
        "Address": "2325 San Pedro Dr NE",
        "City": "Albuquerque",
        "State": "NM",
        "Zip": "87110",
        "Lat": "35.10918",
        "Long": "-106.577475",
        "TotalMedicalSales": 146449.86,
        "TotalAdultUseSales": 154845.43,
        "TotalSalesAll": 301295.29
    },
    {
        "Licensee": "ELKHORN RETAIL LLC/ RETAIL SOUTH RIVERSIDE DRIVE",
        "Address": "423 South Riverside Drive",
        "City": "Espanola",
        "State": "NM",
        "Zip": "87532",
        "Lat": "35.98869",
        "Long": "-106.06504",
        "TotalMedicalSales": 182582.25,
        "TotalAdultUseSales": 209224.77,
        "TotalSalesAll": 391807.02
    },
    {
        "Licensee": "ENCHANTED BOTANICALS LLC - CENTRAL AVE RETAIL",
        "Address": "3417 Central Avenue NE",
        "City": "Albuquerque",
        "State": "NM",
        "Zip": "87106",
        "Lat": "35.081436",
        "Long": "-106.626727",
        "TotalMedicalSales": 31851.89,
        "TotalAdultUseSales": 52532.89,
        "TotalSalesAll": 84384.76
    },
    {
        "Licensee": "ENCHANTED BOTANICALS LLC - MENAUL BLVD RETAIL",
        "Address": "5737 Menaul Blvd NE",
        "City": "Albuquerque",
        "State": "NM",
        "Zip": "87110",
        "Lat": "35.108845",
        "Long": "-106.531508",
        "TotalMedicalSales": 391974.73,
        "TotalAdultUseSales": 780011.64,
        "TotalSalesAll": 1171986.33
    },
    {
        "Licensee": "ENCHANTED LIFE NM - LOUISIANA RETAIL",
        "Address": "400 Louisiana SE",
        "City": "Albuquerque",
        "State": "NM",
        "Zip": "87108",
        "Lat": "35.072436",
        "Long": "-106.568382",
        "TotalMedicalSales": 33729.29,
        "TotalAdultUseSales": 63712.56,
        "TotalSalesAll": 97441.84
    },
    {
        "Licensee": "ENCHANTED STRAINS LLC - 7TH ST RETAIL",
        "Address": "2300 7th St",
        "City": "Clovis",
        "State": "NM",
        "Zip": "88101",
        "Lat": "34.404591",
        "Long": "-103.244803",
        "TotalMedicalSales": 43283.75,
        "TotalAdultUseSales": 163846.21,
        "TotalSalesAll": 207129.97
    },
    {
        "Licensee": "ENDO LLC - RETAIL",
        "Address": "2903 Agua Fria St",
        "City": "Santa Fe",
        "State": "NM",
        "Zip": "87507",
        "Lat": "35.66348",
        "Long": "-105.99777",
        "TotalMedicalSales": 249513.82,
        "TotalAdultUseSales": 477634.63,
        "TotalSalesAll": 727148.45
    },
    {
        "Licensee": "ES HOLDINGS LLC - CENTRAL RETAIL",
        "Address": "8508 Central Ave SE",
        "City": "Albuquerque",
        "State": "NM",
        "Zip": "87108",
        "Lat": "35.07369",
        "Long": "-106.55229",
        "TotalMedicalSales": 125303.37,
        "TotalAdultUseSales": 262005.41,
        "TotalSalesAll": 387308.78
    },
    {
        "Licensee": "EVEREST APOTHECARY",
        "Address": "1580 Appaloosa Dr Ste 320",
        "City": "Sunland Park",
        "State": "NM",
        "Zip": "88063",
        "Lat": "31.796496",
        "Long": "-106.579989",
        "TotalMedicalSales": 206563.22,
        "TotalAdultUseSales": 2740525.15,
        "TotalSalesAll": 2947088.37
    },
    {
        "Licensee": "EVEREST APOTHECARY",
        "Address": "3963 Cerrillos Rd Ste B",
        "City": "Santa Fe",
        "State": "NM",
        "Zip": "87507",
        "Lat": "35.620423",
        "Long": "-106.028899",
        "TotalMedicalSales": 263605.06,
        "TotalAdultUseSales": 772287.68,
        "TotalSalesAll": 1035892.74
    },
    {
        "Licensee": "EVEREST APOTHECARY",
        "Address": "1240 S Valley Dr Ste D",
        "City": "Las Cruces",
        "State": "NM",
        "Zip": "88005",
        "Lat": "32.29426",
        "Long": "-106.78681",
        "TotalMedicalSales": 185433.51,
        "TotalAdultUseSales": 421595,
        "TotalSalesAll": 607028.51
    },
    {
        "Licensee": "EVEREST APOTHECARY",
        "Address": "6010 Coors Blvd Ste 3",
        "City": "Albuquerque",
        "State": "NM",
        "Zip": "87120",
        "Lat": "35.080009",
        "Long": "-106.710619",
        "TotalMedicalSales": 377456.78,
        "TotalAdultUseSales": 987515.25,
        "TotalSalesAll": 1364972.03
    },
    {
        "Licensee": "EVEREST APOTHECARY",
        "Address": "202 N State St",
        "City": "Texico",
        "State": "NM",
        "Zip": "88135",
        "Lat": "34.39003",
        "Long": "-103.04489",
        "TotalMedicalSales": 12551.06,
        "TotalAdultUseSales": 61238.43,
        "TotalSalesAll": 73789.49
    },
    {
        "Licensee": "EVEREST APOTHECARY - ALBUQUERQUE DISPENSARY",
        "Address": "10660 Unser Blvd., NW",
        "City": "Albuquerque",
        "State": "NM",
        "Zip": "87114",
        "Lat": "35.076944",
        "Long": "-106.722994",
        "TotalMedicalSales": 751640.14,
        "TotalAdultUseSales": 1316222.02,
        "TotalSalesAll": 2067862.16
    },
    {
        "Licensee": "EVEREST APOTHECARY - DISPENSARY",
        "Address": "9237 4th St. NW",
        "City": "Albuquerque",
        "State": "NM",
        "Zip": "87114",
        "Lat": "35.13928",
        "Long": "-106.641083",
        "TotalMedicalSales": 580460.86,
        "TotalAdultUseSales": 949270.71,
        "TotalSalesAll": 1529731.57
    },
    {
        "Licensee": "EVEREST APOTHECARY - LAS CRUCES DISPENSARY",
        "Address": "3841 East Lohman Ave",
        "City": "Las Cruces",
        "State": "NM",
        "Zip": "88011",
        "Lat": "32.316103",
        "Long": "-106.743652",
        "TotalMedicalSales": 594843.68,
        "TotalAdultUseSales": 1256644.61,
        "TotalSalesAll": 1851488.29
    },
    {
        "Licensee": "EVEREST APOTHECARY - LOS LUNAS DISPENSARY",
        "Address": "1651 Main Street, Suite E",
        "City": "Los Lunas",
        "State": "NM",
        "Zip": "87031",
        "Lat": "34.81342",
        "Long": "-106.75385",
        "TotalMedicalSales": 719925.97,
        "TotalAdultUseSales": 1210855.67,
        "TotalSalesAll": 1930781.64
    },
    {
        "Licensee": "EVEREST APOTHECARY - RETAIL",
        "Address": "5809 Juan Tabo",
        "City": "Albuquerque",
        "State": "NM",
        "Zip": "87111",
        "Lat": "35.136266",
        "Long": "-106.515627",
        "TotalMedicalSales": 545689.07,
        "TotalAdultUseSales": 1001317.62,
        "TotalSalesAll": 1547006.69
    },
    {
        "Licensee": "EVEREST APOTHECARY DISPENSARY",
        "Address": "2201 Louisiana, Suite E",
        "City": "Albuquerque",
        "State": "NM",
        "Zip": "87110",
        "Lat": "35.10412",
        "Long": "-106.56938",
        "TotalMedicalSales": 774891.4,
        "TotalAdultUseSales": 1270297.04,
        "TotalSalesAll": 2045188.44
    },
    {
        "Licensee": "EVEREST APOTHECARY- ALBUQUERQUE DISPENSARY",
        "Address": "4201 Central Avenue NW, Suite B-6",
        "City": "Albuquerque",
        "State": "NM",
        "Zip": "87105",
        "Lat": "35.08665",
        "Long": "-106.68715",
        "TotalMedicalSales": 595159.32,
        "TotalAdultUseSales": 827023.75,
        "TotalSalesAll": 1422183.07
    },
    {
        "Licensee": "FACTORY DIRECT PIPES REC - 7TH ST RETAIL",
        "Address": "321 W 7th St Ste B",
        "City": "Clovis",
        "State": "NM",
        "Zip": "88101",
        "Lat": "34.40443",
        "Long": "-103.20884",
        "TotalMedicalSales": 2036.88,
        "TotalAdultUseSales": 104177.28,
        "TotalSalesAll": 106214.16
    },
    {
        "Licensee": "FCI OF NEW MEXICO - CERRILLOS RD RETAIL",
        "Address": "3258 Cerrillos Rd",
        "City": "Santa Fe",
        "State": "NM",
        "Zip": "87507",
        "Lat": "35.65069",
        "Long": "-105.99825",
        "TotalMedicalSales": 55984.17,
        "TotalAdultUseSales": 124897.01,
        "TotalSalesAll": 180881.18
    },
    {
        "Licensee": "FCI OF NEW MEXICO - ESPANOLA RETAIL",
        "Address": "419 N Riverside Dr",
        "City": "Espanola",
        "State": "NM",
        "Zip": "87532",
        "Lat": "35.987709",
        "Long": "-106.061802",
        "TotalMedicalSales": 118122.14,
        "TotalAdultUseSales": 235520.4,
        "TotalSalesAll": 353642.54
    },
    {
        "Licensee": "FCI OF NEW MEXICO - EUBANK BLVD RETAIL",
        "Address": "2015 Eubank Blvd NE",
        "City": "Albuquerque",
        "State": "NM",
        "Zip": "87112",
        "Lat": "35.121251",
        "Long": "-106.533379",
        "TotalMedicalSales": 209441.31,
        "TotalAdultUseSales": 645042.55,
        "TotalSalesAll": 854483.86
    },
    {
        "Licensee": "FCI OF NEW MEXICO - FARMINGTON RETAIL",
        "Address": "3501 E Main St Ste 1  2",
        "City": "Farmington",
        "State": "NM",
        "Zip": "87402",
        "Lat": "36.730429",
        "Long": "-108.208919",
        "TotalMedicalSales": 37545.54,
        "TotalAdultUseSales": 312498.58,
        "TotalSalesAll": 350044.12
    },
    {
        "Licensee": "FCI OF NEW MEXICO - GALLUP RETAIL",
        "Address": "1379 US-491",
        "City": "Gallup",
        "State": "NM",
        "Zip": "87301",
        "Lat": "35.54611",
        "Long": "-108.75966",
        "TotalMedicalSales": 55960.14,
        "TotalAdultUseSales": 548231.27,
        "TotalSalesAll": 604191.41
    },
    {
        "Licensee": "FCI OF NEW MEXICO - PICACHO AVE RETAIL",
        "Address": "140 W Picacho Ave Unit C",
        "City": "Las Cruces",
        "State": "NM",
        "Zip": "88005",
        "Lat": "32.3171",
        "Long": "-106.7818",
        "TotalMedicalSales": 14106.1,
        "TotalAdultUseSales": 40800.62,
        "TotalSalesAll": 54906.72
    },
    {
        "Licensee": "FCI OF NEW MEXICO - PRODUCTION",
        "Address": "1319 E Pine St",
        "City": "Deming",
        "State": "NM",
        "Zip": "88030",
        "Lat": "32.269194",
        "Long": "-107.75366",
        "TotalMedicalSales": 6041.27,
        "TotalAdultUseSales": 0,
        "TotalSalesAll": 6041.27
    },
    {
        "Licensee": "FCI OF NEW MEXICO - ROSWELL RETAIL",
        "Address": "2303 N Main St",
        "City": "Roswell",
        "State": "NM",
        "Zip": "88201",
        "Lat": "33.42004",
        "Long": "-104.5225",
        "TotalMedicalSales": 36715.56,
        "TotalAdultUseSales": 88446.26,
        "TotalSalesAll": 125161.82
    },
    {
        "Licensee": "FCI OF NEW MEXICO - SAN MATEO BLVD RETAIL",
        "Address": "4000 San Mateo Blvd NE Ste A",
        "City": "Albuquerque",
        "State": "NM",
        "Zip": "87110",
        "Lat": "35.12669",
        "Long": "-106.58595",
        "TotalMedicalSales": 88951.01,
        "TotalAdultUseSales": 283323.08,
        "TotalSalesAll": 372274.09
    },
    {
        "Licensee": "FCI OF NEW MEXICO - TAOS RETAIL",
        "Address": "1128 Paseo del Pueblo Sur",
        "City": "Taos",
        "State": "NM",
        "Zip": "87571",
        "Lat": "36.400675",
        "Long": "-105.57606",
        "TotalMedicalSales": 96741.58,
        "TotalAdultUseSales": 395803.89,
        "TotalSalesAll": 492545.47
    },
    {
        "Licensee": "FLORA VERDE LLC - MAGUEY CT RETAIL",
        "Address": "100 Maguey Ct",
        "City": "Sunland Park",
        "State": "NM",
        "Zip": "88063",
        "Lat": "31.81139",
        "Long": "-106.59334",
        "TotalMedicalSales": 54178.15,
        "TotalAdultUseSales": 482661.94,
        "TotalSalesAll": 536840.09
    },
    {
        "Licensee": "FLOWERS AND HERB MARKETS INC - SAN PASQUALE RETAIL",
        "Address": "119 San Pasquale Ave SW Ste A",
        "City": "Albuquerque",
        "State": "NM",
        "Zip": "87104",
        "Lat": "35.091831",
        "Long": "-106.669324",
        "TotalMedicalSales": 24887.96,
        "TotalAdultUseSales": 86706.32,
        "TotalSalesAll": 111594.28
    },
    {
        "Licensee": "FLOWERS FLOWERS LC - RETAIL",
        "Address": "700 E 1st St Space 748",
        "City": "Alamogordo",
        "State": "NM",
        "Zip": "88310",
        "Lat": "32.88921",
        "Long": "-105.95451",
        "TotalMedicalSales": 59702.45,
        "TotalAdultUseSales": 90147.21,
        "TotalSalesAll": 149849.66
    },
    {
        "Licensee": "FLY HIGH NEW MEXICO LLC/ RETAIL SAN MATEO BLVD NE STE C",
        "Address": "4001 San Mateo Blvd NE STE C",
        "City": "Albuquerque",
        "State": "NM",
        "Zip": "87110",
        "Lat": "35.12682",
        "Long": "-106.5869",
        "TotalMedicalSales": 8130.6,
        "TotalAdultUseSales": 16774.46,
        "TotalSalesAll": 24905.06
    },
    {
        "Licensee": "FORT TWENTY CANNABIS COMPANY LLC - JEFFERSON ST RETAIL",
        "Address": "7600 Jefferson St NE Ste 6",
        "City": "Albuquerque",
        "State": "NM",
        "Zip": "87109",
        "Lat": "35.142281",
        "Long": "-106.595766",
        "TotalMedicalSales": 50267.55,
        "TotalAdultUseSales": 143643.44,
        "TotalSalesAll": 193910.99
    },
    {
        "Licensee": "FRATELLI INVESTMENT GROUP LLC - SOLANO DR RETAIL",
        "Address": "908 S Solano Dr",
        "City": "Las Cruces",
        "State": "NM",
        "Zip": "88001",
        "Lat": "32.30352",
        "Long": "-106.7638",
        "TotalMedicalSales": 921.63,
        "TotalAdultUseSales": 7262.68,
        "TotalSalesAll": 8184.31
    },
    {
        "Licensee": "FRESHBUDZ LLC - RIVERSIDE DR RETAIL",
        "Address": "1811 N Riverside Dr Ste A",
        "City": "Espanola",
        "State": "NM",
        "Zip": "87532",
        "Lat": "36.01892",
        "Long": "-106.06365",
        "TotalMedicalSales": 146164.04,
        "TotalAdultUseSales": 243348.24,
        "TotalSalesAll": 389512.28
    },
    {
        "Licensee": "FRUIT OF THE EARTH ORGANICS PROCESSING",
        "Address": "815 C Early Street",
        "City": "Santa Fe",
        "State": "NM",
        "Zip": "87505",
        "Lat": "35.678316",
        "Long": "-105.952308",
        "TotalMedicalSales": 3378,
        "TotalAdultUseSales": 0,
        "TotalSalesAll": 3378
    },
    {
        "Licensee": "FRUIT OF THE EARTH ORGANICS-DISPENSARY",
        "Address": "901 Early Street",
        "City": "Santa Fe",
        "State": "NM",
        "Zip": "87505",
        "Lat": "35.67639",
        "Long": "-105.95201",
        "TotalMedicalSales": 2037038.75,
        "TotalAdultUseSales": 949298.77,
        "TotalSalesAll": 2986337.52
    },
    {
        "Licensee": "GAIA TRADERS - RUFINA RETAIL",
        "Address": "1330 Rufina Circle",
        "City": "Santa Fe",
        "State": "NM",
        "Zip": "87507",
        "Lat": "35.654071",
        "Long": "-105.995537",
        "TotalMedicalSales": 23084.9,
        "TotalAdultUseSales": 101377.3,
        "TotalSalesAll": 124462.2
    },
    {
        "Licensee": "GALLEGOS  RHODES ENTERPRISES LLC - KENT AVE RETAIL",
        "Address": "1125 Kent Ave NW",
        "City": "Albuquerque",
        "State": "NM",
        "Zip": "87102",
        "Lat": "35.08797",
        "Long": "-106.66037",
        "TotalMedicalSales": 82179.75,
        "TotalAdultUseSales": 320897.66,
        "TotalSalesAll": 403077.39
    },
    {
        "Licensee": "GH LLC",
        "Address": "601 Paragon",
        "City": "Albuquerque",
        "State": "NM",
        "Zip": "87105",
        "Lat": "35.125806",
        "Long": "-106.664999",
        "TotalMedicalSales": 320151.66,
        "TotalAdultUseSales": 562624.6,
        "TotalSalesAll": 882776.26
    },
    {
        "Licensee": "GH LLC",
        "Address": "2621 Wyoming",
        "City": "Albuquerque",
        "State": "NM",
        "Zip": "87112",
        "Lat": "35.11584",
        "Long": "-106.55129",
        "TotalMedicalSales": 194385.13,
        "TotalAdultUseSales": 377250.6,
        "TotalSalesAll": 571635.73
    },
    {
        "Licensee": "GNOMAD LLC-BROADWAY RETAIL",
        "Address": "223 West Broadway Ste A",
        "City": "Tatum",
        "State": "NM",
        "Zip": "88267",
        "Lat": "33.25682",
        "Long": "-103.31589",
        "TotalMedicalSales": 87617.96,
        "TotalAdultUseSales": 395893.36,
        "TotalSalesAll": 483511.32
    },
    {
        "Licensee": "GOLDEN-ROOTS LLC - OLD COORS DR RETAIL",
        "Address": "806 Old Coors Dr SW Ste D",
        "City": "Albuquerque",
        "State": "NM",
        "Zip": "87121",
        "Lat": "35.0714",
        "Long": "-106.69911",
        "TotalMedicalSales": 143202.87,
        "TotalAdultUseSales": 354839.8,
        "TotalSalesAll": 498042.67
    },
    {
        "Licensee": "GOT GREENS LLC - CORRALES RD RETAIL",
        "Address": "10200 Corrales Rd NW Ste E-2",
        "City": "Albuquerque",
        "State": "NM",
        "Zip": "87114",
        "Lat": "35.20306",
        "Long": "-106.64579",
        "TotalMedicalSales": 2353.56,
        "TotalAdultUseSales": 0,
        "TotalSalesAll": 2353.56
    },
    {
        "Licensee": "GRADYS - RETAIL",
        "Address": "111 N Main",
        "City": "Aztec",
        "State": "NM",
        "Zip": "87410",
        "Lat": "36.822063",
        "Long": "-107.992899",
        "TotalMedicalSales": 50856.13,
        "TotalAdultUseSales": 279616.65,
        "TotalSalesAll": 330472.78
    },
    {
        "Licensee": "GRANDMAS POT SHOP LLC - PERALTA",
        "Address": "2 Valencia Rd",
        "City": "Peralta",
        "State": "NM",
        "Zip": "87042",
        "Lat": "34.81524",
        "Long": "-106.69502",
        "TotalMedicalSales": 42378.68,
        "TotalAdultUseSales": 100643.66,
        "TotalSalesAll": 143022.34
    },
    {
        "Licensee": "GRASSROOTS GRANTS LLC DISPENSARY GALLUP",
        "Address": "3400 East Hwy 66",
        "City": "Gallup",
        "State": "NM",
        "Zip": "87301",
        "Lat": "35.50481",
        "Long": "-108.83635",
        "TotalMedicalSales": 184158.79,
        "TotalAdultUseSales": 510865.08,
        "TotalSalesAll": 695023.87
    },
    {
        "Licensee": "GRASSROOTS RX DISPENSARY",
        "Address": "1005 Mesa Blvd.",
        "City": "Grants",
        "State": "NM",
        "Zip": "87357",
        "Lat": "35.160449",
        "Long": "-107.834061",
        "TotalMedicalSales": 152385.06,
        "TotalAdultUseSales": 284491.91,
        "TotalSalesAll": 436876.97
    },
    {
        "Licensee": "GRASSROOTS RX DISPENSARY ALBUQUERQUE",
        "Address": "3701 San Mateo Blvd. NE",
        "City": "Albuquerque",
        "State": "NM",
        "Zip": "87110",
        "Lat": "35.116409",
        "Long": "-106.586451",
        "TotalMedicalSales": 54887.62,
        "TotalAdultUseSales": 66006.62,
        "TotalSalesAll": 120894.24
    },
    {
        "Licensee": "GRASSROOTS RX DISPENSARY ALBUQUERQUE",
        "Address": "3620 Bosque Plaza Lane NW",
        "City": "Albuquerque",
        "State": "NM",
        "Zip": "87120",
        "Lat": "35.158592",
        "Long": "-106.678019",
        "TotalMedicalSales": 204939.31,
        "TotalAdultUseSales": 263247.7,
        "TotalSalesAll": 468187.01
    },
    {
        "Licensee": "GREEN FUEGO/ RETAIL MALLARD WAY B",
        "Address": "7502 Mallard Way B",
        "City": "Santa Fe",
        "State": "NM",
        "Zip": "87507",
        "Lat": "35.63553",
        "Long": "-106.06538",
        "TotalMedicalSales": 21320.94,
        "TotalAdultUseSales": 44827.88,
        "TotalSalesAll": 66148.82
    },
    {
        "Licensee": "GREEN MINDED HOLDINGS LLC",
        "Address": "876 Highway 48",
        "City": "Alto",
        "State": "NM",
        "Zip": "88312",
        "Lat": "35.978924",
        "Long": "-105.308068",
        "TotalMedicalSales": 100487.97,
        "TotalAdultUseSales": 439932.47,
        "TotalSalesAll": 540420.44
    },
    {
        "Licensee": "GREEN MINDED HOLDINGS LLC",
        "Address": "6505 US Highway 380",
        "City": "Carrizozo",
        "State": "NM",
        "Zip": "88301",
        "Lat": "33.65033",
        "Long": "-105.87703",
        "TotalMedicalSales": 5284.91,
        "TotalAdultUseSales": 11541.77,
        "TotalSalesAll": 16826.68
    },
    {
        "Licensee": "GREEN MINDED HOLDINGS LLC",
        "Address": "2330 Sudderth Drive",
        "City": "Ruidoso",
        "State": "NM",
        "Zip": "88345",
        "Lat": "33.33139",
        "Long": "-105.6697",
        "TotalMedicalSales": 37953,
        "TotalAdultUseSales": 394125.5,
        "TotalSalesAll": 432078.5
    },
    {
        "Licensee": "GREEN MINDED HOLDINGS LLC",
        "Address": "2330 Sudderth Dr",
        "City": "Ruidoso",
        "State": "NM",
        "Zip": "88345",
        "Lat": "33.33139",
        "Long": "-105.6697",
        "TotalMedicalSales": 3555.43,
        "TotalAdultUseSales": 66908.23,
        "TotalSalesAll": 70463.66
    },
    {
        "Licensee": "GREEN REMEDY ENTERPRISES LLC - SOLANO",
        "Address": "590 S Solano",
        "City": "Las Cruces",
        "State": "NM",
        "Zip": "88001",
        "Lat": "32.30809",
        "Long": "-106.76516",
        "TotalMedicalSales": 12604.05,
        "TotalAdultUseSales": 42153.19,
        "TotalSalesAll": 54757.24
    },
    {
        "Licensee": "GREEN THERAPY DISPENSARY, LLC",
        "Address": "460 County Line Drive, Space F",
        "City": "Chaparral",
        "State": "NM",
        "Zip": "88081",
        "Lat": "32.03179",
        "Long": "-106.37773",
        "TotalMedicalSales": 23724.62,
        "TotalAdultUseSales": 178914.59,
        "TotalSalesAll": 202639.21
    },
    {
        "Licensee": "GREENGO NM - LOHMAN AVE RETAIL",
        "Address": "2000 E Lohman Ave Ste E",
        "City": "Las Cruces",
        "State": "NM",
        "Zip": "88001",
        "Lat": "32.31091",
        "Long": "-106.75653",
        "TotalMedicalSales": 75022.02,
        "TotalAdultUseSales": 299479.57,
        "TotalSalesAll": 374501.59
    },
    {
        "Licensee": "H2H DISTRIBUTION LLC",
        "Address": "2400 Juan Tabo Blvd NE Suite B",
        "City": "Albuquerque",
        "State": "NM",
        "Zip": "87112",
        "Lat": "35.084103",
        "Long": "-106.650985",
        "TotalMedicalSales": 12118.48,
        "TotalAdultUseSales": 43498.8,
        "TotalSalesAll": 55617.28
    },
    {
        "Licensee": "H2H DISTRIBUTION LLC",
        "Address": "300 San Mateo Blvd SE",
        "City": "Albuquerque",
        "State": "NM",
        "Zip": "87108",
        "Lat": "35.075751",
        "Long": "-106.58633",
        "TotalMedicalSales": 130305.24,
        "TotalAdultUseSales": 454686,
        "TotalSalesAll": 584991.24
    },
    {
        "Licensee": "HAPPYDAZE LLC",
        "Address": "5000 Jefferson St NE",
        "City": "Albuquerque",
        "State": "NM",
        "Zip": "87109",
        "Lat": "35.142281",
        "Long": "-106.595766",
        "TotalMedicalSales": 66762.67,
        "TotalAdultUseSales": 158275.67,
        "TotalSalesAll": 225038.34
    },
    {
        "Licensee": "HARVEST FOUNDATION",
        "Address": "150 South St. Francis Drive",
        "City": "Santa Fe",
        "State": "NM",
        "Zip": "87501",
        "Lat": "35.68804",
        "Long": "-105.95452",
        "TotalMedicalSales": 260177.81,
        "TotalAdultUseSales": 254962.67,
        "TotalSalesAll": 515140.48
    },
    {
        "Licensee": "HARVEST FOUNDATION - SUDDERTH DR",
        "Address": "925 Sudderth Dr",
        "City": "Ruidoso",
        "State": "NM",
        "Zip": "88345",
        "Lat": "33.328558",
        "Long": "-105.663388",
        "TotalMedicalSales": 59790.62,
        "TotalAdultUseSales": 78058.81,
        "TotalSalesAll": 137849.43
    },
    {
        "Licensee": "HARVEST FOUNDATION ALBUQUERQUE DISPENSARY",
        "Address": "220 Copper Avenue NW, Suite 110, Unit 4",
        "City": "Albuquerque",
        "State": "NM",
        "Zip": "87102",
        "Lat": "35.086165",
        "Long": "-106.65618",
        "TotalMedicalSales": 669783.6,
        "TotalAdultUseSales": 440776.8,
        "TotalSalesAll": 1110560.4
    },
    {
        "Licensee": "HASHTAG CANNABIS LLC - RETAIL",
        "Address": "2460 Missouri Ave",
        "City": "Las Cruces",
        "State": "NM",
        "Zip": "88001",
        "Lat": "32.296573",
        "Long": "-106.752708",
        "TotalMedicalSales": 160067.5,
        "TotalAdultUseSales": 386966.83,
        "TotalSalesAll": 547034.33
    },
    {
        "Licensee": "HEALING HERBZ/ RETAIL N MAIN ST",
        "Address": "2320 N Main St",
        "City": "Clovis",
        "State": "NM",
        "Zip": "88101",
        "Lat": "34.42204",
        "Long": "-103.20562",
        "TotalMedicalSales": 13443.8,
        "TotalAdultUseSales": 14973.42,
        "TotalSalesAll": 28417.22
    },
    {
        "Licensee": "HEALTHY EDUCATION SOCIETY",
        "Address": "2409 W. Pierce Street",
        "City": "Carlsbad",
        "State": "NM",
        "Zip": "88220",
        "Lat": "32.439778",
        "Long": "-104.255908",
        "TotalMedicalSales": 297453.38,
        "TotalAdultUseSales": 204392.02,
        "TotalSalesAll": 501845.4
    },
    {
        "Licensee": "HERRERA CANNABIS COMPANY/ RETAIL HWY 550",
        "Address": "6404 Hwy 550",
        "City": "Cuba",
        "State": "NM",
        "Zip": "87013",
        "Lat": "36.019",
        "Long": "-106.95994",
        "TotalMedicalSales": 15303.99,
        "TotalAdultUseSales": 175753.1,
        "TotalSalesAll": 191057.09
    },
    {
        "Licensee": "HES- RETAIL",
        "Address": "3306 Central Ave SE",
        "City": "Albuquerque",
        "State": "NM",
        "Zip": "87106",
        "Lat": "35.080948",
        "Long": "-106.617689",
        "TotalMedicalSales": 146935.39,
        "TotalAdultUseSales": 660806.69,
        "TotalSalesAll": 807742.08
    },
    {
        "Licensee": "HIGH CLASS/ RETAIL AGUA FRIA ST SUITE 10",
        "Address": "2778 Agua Fria St Suite 5",
        "City": "Santa Fe",
        "State": "NM",
        "Zip": "87507",
        "Lat": "35.66483",
        "Long": "-105.99294",
        "TotalMedicalSales": 30623.21,
        "TotalAdultUseSales": 45067.84,
        "TotalSalesAll": 75691.05
    },
    {
        "Licensee": "HIGH DESERT CANNABIS LLC/ RETAIL RIO GRANDE BLVD NW SUITE B",
        "Address": "2400 Rio Grande Blvd NW Suite B",
        "City": "Albuquerque",
        "State": "NM",
        "Zip": "87104",
        "Lat": "35.11797",
        "Long": "-106.67492",
        "TotalMedicalSales": 19144.42,
        "TotalAdultUseSales": 142768.49,
        "TotalSalesAll": 161912.9
    },
    {
        "Licensee": "HIGH DESERT RELIEF DISPENSARY",
        "Address": "4840-H Pan American East Freeway",
        "City": "Albuquerque",
        "State": "NM",
        "Zip": "87109",
        "Lat": "35.13641",
        "Long": "-106.60167",
        "TotalMedicalSales": 2276716.65,
        "TotalAdultUseSales": 740629.27,
        "TotalSalesAll": 3017345.92
    },
    {
        "Licensee": "HIGH DESERT RELIEF DISPENSARY",
        "Address": "3320-A Coors Blvd NW",
        "City": "Albuquerque",
        "State": "NM",
        "Zip": "87120",
        "Lat": "35.106803",
        "Long": "-106.704488",
        "TotalMedicalSales": 1768373.3,
        "TotalAdultUseSales": 743788.43,
        "TotalSalesAll": 2512161.73
    },
    {
        "Licensee": "HIGH DESERT RELIEF DISPENSARY",
        "Address": "5041 Main Street",
        "City": "Santa Fe",
        "State": "NM",
        "Zip": "87507",
        "Lat": "35.436228",
        "Long": "-106.12303",
        "TotalMedicalSales": 877852.16,
        "TotalAdultUseSales": 663653.17,
        "TotalSalesAll": 1541505.33
    },
    {
        "Licensee": "HIGH HORSE INVESTMENT LLC - MCNUTT RD RETAIL",
        "Address": "580 S. Valley Suite 300",
        "City": "Las Cruces",
        "State": "NM",
        "Zip": "88005",
        "Lat": "32.2913",
        "Long": "-106.78413",
        "TotalMedicalSales": 115132.5,
        "TotalAdultUseSales": 152651.18,
        "TotalSalesAll": 267783.68
    },
    {
        "Licensee": "HIGH HORSE INVESTMENT LLC- COUNTY LINE DR RETAIL",
        "Address": "545 S County Line Dr Ste B",
        "City": "Chaparral",
        "State": "NM",
        "Zip": "88081",
        "Lat": "32.03668",
        "Long": "-106.37658",
        "TotalMedicalSales": 164104.5,
        "TotalAdultUseSales": 536791.42,
        "TotalSalesAll": 700895.92
    },
    {
        "Licensee": "HIGH NOON CANNABIS LLC - FRANKLIN ST RETAIL",
        "Address": "629 N Franklin St",
        "City": "Hatch",
        "State": "NM",
        "Zip": "87937",
        "Lat": "32.67187",
        "Long": "-107.15405",
        "TotalMedicalSales": 11922.23,
        "TotalAdultUseSales": 24847.36,
        "TotalSalesAll": 36769.59
    },
    {
        "Licensee": "HIGH NOON/ RETAIL W AZTEC BLVD",
        "Address": "2210 W Aztec Blvd",
        "City": "Aztec",
        "State": "NM",
        "Zip": "87410",
        "Lat": "36.82493",
        "Long": "-108.03061",
        "TotalMedicalSales": 332.86,
        "TotalAdultUseSales": 108663.51,
        "TotalSalesAll": 108996.37
    },
    {
        "Licensee": "HIGH VALLEY CANNABIS CO LLC/ RETAIL ARCHANGEL WAY",
        "Address": "100 Archangel Way",
        "City": "Chaparral",
        "State": "NM",
        "Zip": "88081",
        "Lat": "32.00219",
        "Long": "-106.35541",
        "TotalMedicalSales": 0,
        "TotalAdultUseSales": 8,
        "TotalSalesAll": 8
    },
    {
        "Licensee": "HONEYBUDZ LLC - MAIN ST RETAIL",
        "Address": "9 Main St",
        "City": "Clayton",
        "State": "NM",
        "Zip": "88415",
        "Lat": "36.45164",
        "Long": "-103.18504",
        "TotalMedicalSales": 12283.86,
        "TotalAdultUseSales": 96509.58,
        "TotalSalesAll": 108793.44
    },
    {
        "Licensee": "HONEYBUDZ LLC - MAIN ST RETAIL",
        "Address": "422 Monroe St",
        "City": "Clayton",
        "State": "NM",
        "Zip": "88415",
        "Lat": "36.44927",
        "Long": "-103.19143",
        "TotalMedicalSales": 1390.77,
        "TotalAdultUseSales": 16143.69,
        "TotalSalesAll": 17534.46
    },
    {
        "Licensee": "ICANNA LLC - N VALLEY DR, LC",
        "Address": "505 N Valley Dr",
        "City": "Las Cruces",
        "State": "NM",
        "Zip": "88005",
        "Lat": "32.309658",
        "Long": "-106.796248",
        "TotalMedicalSales": 35427.09,
        "TotalAdultUseSales": 280467.11,
        "TotalSalesAll": 315894.2
    },
    {
        "Licensee": "KEYWAY - DISPENSARY -OPEN",
        "Address": "24 Bisbee Ct.",
        "City": "Santa Fe",
        "State": "NM",
        "Zip": "87508",
        "Lat": "35.596836",
        "Long": "-106.041777",
        "TotalMedicalSales": 402033.94,
        "TotalAdultUseSales": 389056.27,
        "TotalSalesAll": 791090.21
    },
    {
        "Licensee": "KEYWAY ALBUQUERQUE DISPENSARY",
        "Address": "9880 Montgomery Blvd. NE, Ste. C",
        "City": "Albuquerque",
        "State": "NM",
        "Zip": "87111",
        "Lat": "35.130603",
        "Long": "-106.500279",
        "TotalMedicalSales": 261628.83,
        "TotalAdultUseSales": 165509.76,
        "TotalSalesAll": 427138.59
    },
    {
        "Licensee": "KEYWAY ALBUQUERQUE DISPENSARY",
        "Address": "5659 Jefferson Street NE, Suite A",
        "City": "Albuquerque",
        "State": "NM",
        "Zip": "87109",
        "Lat": "35.142281",
        "Long": "-106.595766",
        "TotalMedicalSales": 416787.84,
        "TotalAdultUseSales": 307759.93,
        "TotalSalesAll": 724547.77
    },
    {
        "Licensee": "KEYWAY INC/ RETAIL SOUTH FIRST STREET",
        "Address": "603 South First Street",
        "City": "Clayton",
        "State": "NM",
        "Zip": "88451",
        "Lat": "36.44623",
        "Long": "-103.18059",
        "TotalMedicalSales": 5454.05,
        "TotalAdultUseSales": 43590.03,
        "TotalSalesAll": 49044.08
    },
    {
        "Licensee": "KEYWAY- RETAIL",
        "Address": "1592 San Mateo Lane",
        "City": "Santa Fe",
        "State": "NM",
        "Zip": "87505",
        "Lat": "35.66448",
        "Long": "-105.96186",
        "TotalMedicalSales": 196703.87,
        "TotalAdultUseSales": 153402.33,
        "TotalSalesAll": 350106.2
    },
    {
        "Licensee": "KIJANI CORP - WYOMING BLVD, ABQ",
        "Address": "343 Wyoming Blvd NE",
        "City": "Albuquerque",
        "State": "NM",
        "Zip": "87123",
        "Lat": "35.07974",
        "Long": "-106.55069",
        "TotalMedicalSales": 44292.37,
        "TotalAdultUseSales": 113397.43,
        "TotalSalesAll": 157689.8
    },
    {
        "Licensee": "KINDLIFE KIRTLAND LLC/ RETAIL HIGHWAY 64",
        "Address": "4354 Highway 64",
        "City": "Kirtland",
        "State": "NM",
        "Zip": "87417",
        "Lat": "36.7356",
        "Long": "-108.33059",
        "TotalMedicalSales": 13088.15,
        "TotalAdultUseSales": 140353.42,
        "TotalSalesAll": 153441.57
    },
    {
        "Licensee": "KINE LLC - DURAZNO ST RETAIL",
        "Address": "100 Durazno St",
        "City": "Tularosa",
        "State": "NM",
        "Zip": "88352",
        "Lat": "33.07614",
        "Long": "-106.01649",
        "TotalMedicalSales": 10,
        "TotalAdultUseSales": 0,
        "TotalSalesAll": 10
    },
    {
        "Licensee": "KURE, INC.",
        "Address": "628 Old Las Vegas Hwy",
        "City": "Santa Fe",
        "State": "NM",
        "Zip": "87508",
        "Lat": "35.548967",
        "Long": "-105.826664",
        "TotalMedicalSales": 75301.5,
        "TotalAdultUseSales": 98444,
        "TotalSalesAll": 173745.5
    },
    {
        "Licensee": "KURE, INC. - DISPENSARY",
        "Address": "220 N. Guadalupe Street",
        "City": "Santa Fe",
        "State": "NM",
        "Zip": "87507",
        "Lat": "35.68968",
        "Long": "-105.94422",
        "TotalMedicalSales": 348667.85,
        "TotalAdultUseSales": 654362.94,
        "TotalSalesAll": 1003030.79
    },
    {
        "Licensee": "KURE, INC. DISPENSARY SANTA FE SECOND LOCATION",
        "Address": "2891 Cooks Road",
        "City": "Santa Fe",
        "State": "NM",
        "Zip": "87507",
        "Lat": "35.662744",
        "Long": "-105.993306",
        "TotalMedicalSales": 2104,
        "TotalAdultUseSales": 0,
        "TotalSalesAll": 2104
    },
    {
        "Licensee": "KUSHOLOGY 101 LLC - OHARA RD, RETAIL",
        "Address": "1600 E OHara Rd",
        "City": "Anthony",
        "State": "NM",
        "Zip": "88021",
        "Lat": "32.02397",
        "Long": "-106.59576",
        "TotalMedicalSales": 49003.81,
        "TotalAdultUseSales": 440915.17,
        "TotalSalesAll": 489918.98
    },
    {
        "Licensee": "KUSTOM KUSH LLC - CENTRAL RETAIL",
        "Address": "7401 Central NE",
        "City": "Albuquerque",
        "State": "NM",
        "Zip": "87108",
        "Lat": "35.0757",
        "Long": "-106.56504",
        "TotalMedicalSales": 2410.1,
        "TotalAdultUseSales": 5383.3,
        "TotalSalesAll": 7793.4
    },
    {
        "Licensee": "LA FLOR DISPENSARY/ RETAIL CENTRAL AVE SE",
        "Address": "1301 San Mateo Blvd NE",
        "City": "Albuquerque",
        "State": "NM",
        "Zip": "87110",
        "Lat": "35.09012",
        "Long": "-106.58666",
        "TotalMedicalSales": 24.3,
        "TotalAdultUseSales": 0,
        "TotalSalesAll": 24.3
    },
    {
        "Licensee": "LA LUZ ORGANICS LLC - CAMINO DEL PUEBLO RETAIL",
        "Address": "961 S Camino Del Pueblo",
        "City": "Bernalillo",
        "State": "NM",
        "Zip": "87004",
        "Lat": "35.312253",
        "Long": "-106.547332",
        "TotalMedicalSales": 17440.34,
        "TotalAdultUseSales": 76884.59,
        "TotalSalesAll": 94324.93
    },
    {
        "Licensee": "LAGGRAY LLC",
        "Address": "3023 S First St",
        "City": "Tucumcari",
        "State": "NM",
        "Zip": "88401",
        "Lat": "35.16668",
        "Long": "-103.738115",
        "TotalMedicalSales": 88696.55,
        "TotalAdultUseSales": 782159.72,
        "TotalSalesAll": 870856.27
    },
    {
        "Licensee": "LAUGHING LEAF DISPENSARY- ST FRANCIS RETAIL",
        "Address": "900 St Francis Dr",
        "City": "Tularosa",
        "State": "NM",
        "Zip": "88352",
        "Lat": "33.07525",
        "Long": "-106.01889",
        "TotalMedicalSales": 8847.41,
        "TotalAdultUseSales": 18385.24,
        "TotalSalesAll": 27232.65
    },
    {
        "Licensee": "LEAF AND FLOWER LLC",
        "Address": "11719 Menaul Blvd NE",
        "City": "Albuquerque",
        "State": "NM",
        "Zip": "87112",
        "Lat": "35.10907",
        "Long": "-106.51008",
        "TotalMedicalSales": 16765.66,
        "TotalAdultUseSales": 23929.08,
        "TotalSalesAll": 40694.74
    },
    {
        "Licensee": "LEAF AND FLOWER LLC",
        "Address": "10601 Central Ave NE",
        "City": "Albuquerque",
        "State": "NM",
        "Zip": "87123",
        "Lat": "35.07178",
        "Long": "-106.5296",
        "TotalMedicalSales": 156985.9,
        "TotalAdultUseSales": 306429.22,
        "TotalSalesAll": 463415.12
    },
    {
        "Licensee": "LEAF AND FLOWER LLC",
        "Address": "1634 Alameda Blvd NW",
        "City": "Albuquerque",
        "State": "NM",
        "Zip": "87114",
        "Lat": "35.20161",
        "Long": "-106.6469",
        "TotalMedicalSales": 752.38,
        "TotalAdultUseSales": 3003.1,
        "TotalSalesAll": 3755.48
    },
    {
        "Licensee": "LEAF AND FLOWER LLC",
        "Address": "6015 4th St NW",
        "City": "Albuquerque",
        "State": "NM",
        "Zip": "87107",
        "Lat": "35.13857",
        "Long": "-106.641295",
        "TotalMedicalSales": 215257.96,
        "TotalAdultUseSales": 407410.25,
        "TotalSalesAll": 622668.21
    },
    {
        "Licensee": "LEAF AND FLOWER LLC",
        "Address": "5910 Gibson Blvd SE",
        "City": "Albuquerque",
        "State": "NM",
        "Zip": "87108",
        "Lat": "35.05808",
        "Long": "-106.5767",
        "TotalMedicalSales": 77047.93,
        "TotalAdultUseSales": 110855.52,
        "TotalSalesAll": 187903.45
    },
    {
        "Licensee": "LEAF REPUBLIC - HWY 314 NW RETAIL",
        "Address": "127 Hwy 314 NW",
        "City": "Los Lunas",
        "State": "NM",
        "Zip": "87031",
        "Lat": "34.80792",
        "Long": "-106.736",
        "TotalMedicalSales": 0,
        "TotalAdultUseSales": 51755.53,
        "TotalSalesAll": 51755.53
    },
    {
        "Licensee": "LOVES CANNABIS",
        "Address": "1220 Eubank Blvd NE Ste B",
        "City": "Albuquerque",
        "State": "NM",
        "Zip": "87112",
        "Lat": "35.121251",
        "Long": "-106.533379",
        "TotalMedicalSales": 102740.08,
        "TotalAdultUseSales": 306413.66,
        "TotalSalesAll": 409153.74
    },
    {
        "Licensee": "LTDM LLC - ISLETA BLVD RETAIL",
        "Address": "468 Isleta Blvd SW",
        "City": "Albuquerque",
        "State": "NM",
        "Zip": "87105",
        "Lat": "35.06194",
        "Long": "-106.66743",
        "TotalMedicalSales": 92807.94,
        "TotalAdultUseSales": 201499.47,
        "TotalSalesAll": 294307.41
    },
    {
        "Licensee": "M THOMAS LLC - MAIN ST RETAIL",
        "Address": "2215A S Main St",
        "City": "Las Cruces",
        "State": "NM",
        "Zip": "88005",
        "Lat": "32.2859",
        "Long": "-106.77286",
        "TotalMedicalSales": 4659.5,
        "TotalAdultUseSales": 11073,
        "TotalSalesAll": 15732.5
    },
    {
        "Licensee": "M.R.R.S. LLC - SAN MATEO RETAIL",
        "Address": "2130 San Mateo Blvd NE Ste B",
        "City": "Albuquerque",
        "State": "NM",
        "Zip": "87110",
        "Lat": "35.10119",
        "Long": "-106.58605",
        "TotalMedicalSales": 19987.19,
        "TotalAdultUseSales": 62221.86,
        "TotalSalesAll": 82209.05
    },
    {
        "Licensee": "MADRID CANNABIS, INC - RAILYARD LN, RETAIL",
        "Address": "8 Railyard Ln",
        "City": "Madrid",
        "State": "NM",
        "Zip": "87010",
        "Lat": "35.40579",
        "Long": "-106.15185",
        "TotalMedicalSales": 26317.19,
        "TotalAdultUseSales": 110672.39,
        "TotalSalesAll": 136989.58
    },
    {
        "Licensee": "MARCOS ANTONIO PAGAN CARTIGIANO - SAN PEDRO - RETAIL",
        "Address": "301 San Pedro NE",
        "City": "Albuquerque",
        "State": "NM",
        "Zip": "87108",
        "Lat": "35.0809",
        "Long": "-106.57774",
        "TotalMedicalSales": 722.06,
        "TotalAdultUseSales": 37140.06,
        "TotalSalesAll": 37862.12
    },
    {
        "Licensee": "MASBUDS LLC - WYATT DR RETAIL",
        "Address": "142 Wyatt Dr",
        "City": "Las Cruces",
        "State": "NM",
        "Zip": "88005",
        "Lat": "32.299626",
        "Long": "-106.775955",
        "TotalMedicalSales": 23996.97,
        "TotalAdultUseSales": 42856.68,
        "TotalSalesAll": 66853.65
    },
    {
        "Licensee": "MAY FLOWER - 5TH ST RETAIL",
        "Address": "301 S 5th St",
        "City": "Estancia",
        "State": "NM",
        "Zip": "87016",
        "Lat": "34.761763",
        "Long": "-106.05543",
        "TotalMedicalSales": 43395.32,
        "TotalAdultUseSales": 127331.96,
        "TotalSalesAll": 170727.28
    },
    {
        "Licensee": "MCGFARMS LLC/ RETAIL CALLE DE DAN ALBINO",
        "Address": "2309 Calle de Albino Suite 3",
        "City": "Mesilla",
        "State": "NM",
        "Zip": "88046",
        "Lat": "32.27504",
        "Long": "-106.79486",
        "TotalMedicalSales": 2223.44,
        "TotalAdultUseSales": 15187.09,
        "TotalSalesAll": 17410.53
    },
    {
        "Licensee": "MELLOW HARVEST DISPENSARY LLC/ RETAIL N CANAL ST",
        "Address": "117 N Canal St",
        "City": "Carlsbad",
        "State": "NM",
        "Zip": "88220",
        "Lat": "32.427428",
        "Long": "-104.228973",
        "TotalMedicalSales": 60877.08,
        "TotalAdultUseSales": 126442.33,
        "TotalSalesAll": 187319.41
    },
    {
        "Licensee": "MELLOW HARVEST DISPENSARY LLC/ RETAIL N CANAL ST",
        "Address": "117 S Canyon St",
        "City": "Carlsbad",
        "State": "NM",
        "Zip": "88220",
        "Lat": "32.41963",
        "Long": "-104.22783",
        "TotalMedicalSales": 77804.38,
        "TotalAdultUseSales": 193513.97,
        "TotalSalesAll": 271318.35
    },
    {
        "Licensee": "MERCAN DREAMS LLC - CAMINO DEL PUEBLO RETAIL",
        "Address": "872 Camino Del Pueblo",
        "City": "Bernalillo",
        "State": "NM",
        "Zip": "87004",
        "Lat": "35.30283",
        "Long": "-106.5496",
        "TotalMedicalSales": 171,
        "TotalAdultUseSales": 62901.44,
        "TotalSalesAll": 63072.44
    },
    {
        "Licensee": "MERCAN DREAMS LLC- BERNA RETAIL",
        "Address": "965 US-550 Ste B",
        "City": "Bernalillo",
        "State": "NM",
        "Zip": "87004",
        "Lat": "35.32449",
        "Long": "-106.56359",
        "TotalMedicalSales": 0,
        "TotalAdultUseSales": 81560.51,
        "TotalSalesAll": 81560.51
    },
    {
        "Licensee": "MINERVA CANNA GROUP DISPENSARY - ALBUQUERQUE",
        "Address": "5800 Gibson SE",
        "City": "Albuquerque",
        "State": "NM",
        "Zip": "87106",
        "Lat": "35.059009",
        "Long": "-106.633823",
        "TotalMedicalSales": 458805.96,
        "TotalAdultUseSales": 581389.87,
        "TotalSalesAll": 1040195.83
    },
    {
        "Licensee": "MINERVA CANNA GROUP DISPENSARY - LOS LUNAS",
        "Address": "336 Main Street",
        "City": "Los Lunas",
        "State": "NM",
        "Zip": "87031",
        "Lat": "34.804828",
        "Long": "-106.705262",
        "TotalMedicalSales": 612838.61,
        "TotalAdultUseSales": 452605.27,
        "TotalSalesAll": 1065443.88
    },
    {
        "Licensee": "MINERVA CANNA GROUP DISPENSARY- ALAMEDA",
        "Address": "3410 Hwy 528 NW Suite 105",
        "City": "Albuquerque",
        "State": "NM",
        "Zip": "87114",
        "Lat": "35.084103",
        "Long": "-106.650985",
        "TotalMedicalSales": 428661.32,
        "TotalAdultUseSales": 343011.11,
        "TotalSalesAll": 771672.43
    },
    {
        "Licensee": "MINERVA CANNA GROUP DISPENSARY- LAS VEGAS",
        "Address": "503 6th Street",
        "City": "Las Vegas",
        "State": "NM",
        "Zip": "87701",
        "Lat": "35.599036",
        "Long": "-105.217728",
        "TotalMedicalSales": 330205.23,
        "TotalAdultUseSales": 267788.17,
        "TotalSalesAll": 597993.4
    },
    {
        "Licensee": "MINERVA CANNA GROUP DISPENSARY- SANTA FE/ CONSUMPTION",
        "Address": "1710 Cerrillos Road",
        "City": "Santa Fe",
        "State": "NM",
        "Zip": "87507",
        "Lat": "35.666544",
        "Long": "-105.969869",
        "TotalMedicalSales": 451009.59,
        "TotalAdultUseSales": 609017.01,
        "TotalSalesAll": 1060026.6
    },
    {
        "Licensee": "MINERVA CANNA GROUP DISPENSARY-BERNALILLO",
        "Address": "113 W. Hwy 550",
        "City": "Bernalillo",
        "State": "NM",
        "Zip": "87004",
        "Lat": "35.31872",
        "Long": "-106.54613",
        "TotalMedicalSales": 458997.87,
        "TotalAdultUseSales": 593233.61,
        "TotalSalesAll": 1052231.48
    },
    {
        "Licensee": "MINERVA RETAIL",
        "Address": "125 E. Water St",
        "City": "Santa Fe",
        "State": "NM",
        "Zip": "87501",
        "Lat": "35.68644",
        "Long": "-105.9389",
        "TotalMedicalSales": 114828.23,
        "TotalAdultUseSales": 557515.36,
        "TotalSalesAll": 672343.59
    },
    {
        "Licensee": "MJ ALTA VIDA PRODUCTS LLC - SAN MATEO RETAIL",
        "Address": "3094 San Mateo Blvd NE Ste 3100B",
        "City": "Albuquerque",
        "State": "NM",
        "Zip": "87110",
        "Lat": "35.084103",
        "Long": "-106.650985",
        "TotalMedicalSales": 46976.14,
        "TotalAdultUseSales": 106438.04,
        "TotalSalesAll": 153414.18
    },
    {
        "Licensee": "MJ EXPRESS-O",
        "Address": "755 S Telshor Blvd.. Bldg A",
        "City": "Las Cruces",
        "State": "NM",
        "Zip": "88011",
        "Lat": "32.31132",
        "Long": "-106.74093",
        "TotalMedicalSales": 1972217.98,
        "TotalAdultUseSales": 2010928.66,
        "TotalSalesAll": 3983146.64
    },
    {
        "Licensee": "MJ EXPRESS-O",
        "Address": "203 S. Foch Street",
        "City": "Truth or Consequences",
        "State": "NM",
        "Zip": "87901",
        "Lat": "33.126323",
        "Long": "-107.254215",
        "TotalMedicalSales": 793960.76,
        "TotalAdultUseSales": 453541.71,
        "TotalSalesAll": 1247502.47
    },
    {
        "Licensee": "MJ EXPRESS-O ALBUQUERQUE",
        "Address": "417 Tramway Blvd. NE, Suite 2",
        "City": "Albuquerque",
        "State": "NM",
        "Zip": "87123",
        "Lat": "35.086878",
        "Long": "-106.497335",
        "TotalMedicalSales": 1436702.3,
        "TotalAdultUseSales": 1741175.33,
        "TotalSalesAll": 3177877.63
    },
    {
        "Licensee": "MODERN MEDZ PHARM/ RETAIL BOSQUE FARMS BLVD",
        "Address": "1495 Bosque Farms Blvd",
        "City": "Bosque Farms",
        "State": "NM",
        "Zip": "87068",
        "Lat": "34.860946",
        "Long": "-106.690717",
        "TotalMedicalSales": 7758.74,
        "TotalAdultUseSales": 14229.42,
        "TotalSalesAll": 21988.16
    },
    {
        "Licensee": "MONSTER HOUSE SMOKE LLC/ RETAIL N SOLANO DR",
        "Address": "301 N Solano Dr",
        "City": "Las Cruces",
        "State": "NM",
        "Zip": "88001",
        "Lat": "32.314959",
        "Long": "-106.766892",
        "TotalMedicalSales": 48541.79,
        "TotalAdultUseSales": 107030.72,
        "TotalSalesAll": 155572.51
    },
    {
        "Licensee": "MOTHERS MEDS LLC/ RETAIL E MAIN ST SUITE 105",
        "Address": "5100 E Main St Suite 105",
        "City": "Farmington",
        "State": "NM",
        "Zip": "87402",
        "Lat": "36.76879",
        "Long": "-108.1454",
        "TotalMedicalSales": 4813.98,
        "TotalAdultUseSales": 17636.24,
        "TotalSalesAll": 22450.22
    },
    {
        "Licensee": "MOUNTAIN HIGH EXPRESS",
        "Address": "2381 Frontage Rd",
        "City": "Chama",
        "State": "NM",
        "Zip": "87520",
        "Lat": "34.09373",
        "Long": "-106.89839",
        "TotalMedicalSales": 10076.53,
        "TotalAdultUseSales": 82985.76,
        "TotalSalesAll": 93062.29
    },
    {
        "Licensee": "MUNCHIEZ CANNABIS LLC - SUDDERTH DR RETAIL",
        "Address": "1715 Sudderth Dr",
        "City": "Ruidoso",
        "State": "NM",
        "Zip": "88345",
        "Lat": "33.328558",
        "Long": "-105.663388",
        "TotalMedicalSales": 251424.63,
        "TotalAdultUseSales": 959943.67,
        "TotalSalesAll": 1211368.3
    },
    {
        "Licensee": "NATURAL RX",
        "Address": "4320 Lead Avenue SE",
        "City": "Albuquerque",
        "State": "NM",
        "Zip": "87108",
        "Lat": "35.07554",
        "Long": "-106.59678",
        "TotalMedicalSales": 475567.76,
        "TotalAdultUseSales": 605172.21,
        "TotalSalesAll": 1080739.97
    },
    {
        "Licensee": "NATURAL RX",
        "Address": "508 Hwy. 85",
        "City": "Socorro",
        "State": "NM",
        "Zip": "87801",
        "Lat": "34.057277",
        "Long": "-106.893017",
        "TotalMedicalSales": 400187.24,
        "TotalAdultUseSales": 330985.15,
        "TotalSalesAll": 731172.39
    },
    {
        "Licensee": "NATURAL RX",
        "Address": "3414 State Hwy 47",
        "City": "Los Lunas",
        "State": "NM",
        "Zip": "87031",
        "Lat": "34.802146",
        "Long": "-106.701674",
        "TotalMedicalSales": 204654.61,
        "TotalAdultUseSales": 115988.88,
        "TotalSalesAll": 320643.49
    },
    {
        "Licensee": "NATURAL RX",
        "Address": "8612 PASEO ALAMEDA SUITE E",
        "City": "Albuquerque",
        "State": "NM",
        "Zip": "87113",
        "Lat": "35.084103",
        "Long": "-106.650985",
        "TotalMedicalSales": 87409.79,
        "TotalAdultUseSales": 79946.57,
        "TotalSalesAll": 167356.36
    },
    {
        "Licensee": "NATURAL RX DISPENSARY",
        "Address": "2220 Grande Blvd. Suite C",
        "City": "Rio Rancho",
        "State": "NM",
        "Zip": "87124",
        "Lat": "35.233375",
        "Long": "-106.664472",
        "TotalMedicalSales": 401075.48,
        "TotalAdultUseSales": 300278.48,
        "TotalSalesAll": 701353.96
    },
    {
        "Licensee": "NATURES SECRET CANNABIS - 4TH ST RETAIL",
        "Address": "2523 4th St NW",
        "City": "Albuquerque",
        "State": "NM",
        "Zip": "87102",
        "Lat": "35.091249",
        "Long": "-106.650342",
        "TotalMedicalSales": 460683.57,
        "TotalAdultUseSales": 1228457.9,
        "TotalSalesAll": 1689141.47
    },
    {
        "Licensee": "NATURES SOLUTION -",
        "Address": "1220 E Mabry Dr",
        "City": "Clovis",
        "State": "NM",
        "Zip": "88101",
        "Lat": "34.3984",
        "Long": "-103.19055",
        "TotalMedicalSales": 5908.47,
        "TotalAdultUseSales": 31518.76,
        "TotalSalesAll": 37427.24
    },
    {
        "Licensee": "NEW HEIGHTS DISPENSARY INC/ RETAIL CHAMA ST NE STE B",
        "Address": "516 Chama St NE Ste B",
        "City": "Albuquerque",
        "State": "NM",
        "Zip": "87108",
        "Lat": "35.08425",
        "Long": "-106.56604",
        "TotalMedicalSales": 5830.61,
        "TotalAdultUseSales": 30571.54,
        "TotalSalesAll": 36402.15
    },
    {
        "Licensee": "NEW MEXICO ALTERNATIVE CARE",
        "Address": "534 East Broadway",
        "City": "FARMINGTON",
        "State": "NM",
        "Zip": "87401",
        "Lat": "36.719687",
        "Long": "-108.182395",
        "TotalMedicalSales": 374900.01,
        "TotalAdultUseSales": 799495.71,
        "TotalSalesAll": 1174395.72
    },
    {
        "Licensee": "NEW MEXICO DRIP LLC - CENTRAL AVE RETAIL",
        "Address": "9012 Central Ave SE",
        "City": "Albuquerque",
        "State": "NM",
        "Zip": "87123",
        "Lat": "35.0694",
        "Long": "-106.509661",
        "TotalMedicalSales": 6328.46,
        "TotalAdultUseSales": 15301.65,
        "TotalSalesAll": 21630.11
    },
    {
        "Licensee": "NEW MEXICO TOP ORGANICS  COORS",
        "Address": "5115 Coors Blvd. NW",
        "City": "Albuquerque",
        "State": "NM",
        "Zip": "87120",
        "Lat": "35.1451",
        "Long": "-106.69436",
        "TotalMedicalSales": 352271.2,
        "TotalAdultUseSales": 250820.09,
        "TotalSalesAll": 603091.29
    },
    {
        "Licensee": "NEW MEXICO TOP ORGANICS ULTRA HEALTH INC",
        "Address": "4 George Court Suites B, C, D",
        "City": "Edgewood",
        "State": "NM",
        "Zip": "87015",
        "Lat": "35.061436",
        "Long": "-106.191414",
        "TotalMedicalSales": 363948.33,
        "TotalAdultUseSales": 604522.37,
        "TotalSalesAll": 968470.7
    },
    {
        "Licensee": "NEW MEXICO TOP ORGANICS ULTRA HEALTH INC",
        "Address": "1965 Bataan Memorial",
        "City": "Las Cruces",
        "State": "NM",
        "Zip": "88012",
        "Lat": "32.351383",
        "Long": "-106.76682",
        "TotalMedicalSales": 365685.91,
        "TotalAdultUseSales": 292197.69,
        "TotalSalesAll": 657883.6
    },
    {
        "Licensee": "NEW MEXICO TOP ORGANICS ULTRA HEALTH INC",
        "Address": "745 Highway 64",
        "City": "Eagle Nest",
        "State": "NM",
        "Zip": "87718",
        "Lat": "36.55253",
        "Long": "-105.25568",
        "TotalMedicalSales": 44084.6,
        "TotalAdultUseSales": 277587.37,
        "TotalSalesAll": 321671.97
    },
    {
        "Licensee": "NEW MEXICO TOP ORGANICS ULTRA HEALTH INC",
        "Address": "824 E Route 66",
        "City": "Tucumcari",
        "State": "NM",
        "Zip": "88401",
        "Lat": "35.165084",
        "Long": "-103.75884",
        "TotalMedicalSales": 196850.92,
        "TotalAdultUseSales": 163351.21,
        "TotalSalesAll": 360202.13
    },
    {
        "Licensee": "NEW MEXICO TOP ORGANICS ULTRA HEALTH INC",
        "Address": "1155 McNutt, Building B",
        "City": "Sunland Park",
        "State": "NM",
        "Zip": "88063",
        "Lat": "31.79427",
        "Long": "-106.55807",
        "TotalMedicalSales": 145152.35,
        "TotalAdultUseSales": 598875.87,
        "TotalSalesAll": 744028.22
    },
    {
        "Licensee": "NM ALTITUDE RETAIL",
        "Address": "1100 State Highway 528 Ne Suite A",
        "City": "Rio Rancho",
        "State": "NM",
        "Zip": "87144",
        "Lat": "35.233375",
        "Long": "-106.664472",
        "TotalMedicalSales": 204855.92,
        "TotalAdultUseSales": 490105.28,
        "TotalSalesAll": 694961.2
    },
    {
        "Licensee": "NM ALTITUDE RETAIL",
        "Address": " 1100 State Highway 528 Ne Suite A",
        "City": "Rio Rancho",
        "State": "NM",
        "Zip": "87144",
        "Lat": "35.233375",
        "Long": "-106.664472",
        "TotalMedicalSales": 176377.96,
        "TotalAdultUseSales": 427693.07,
        "TotalSalesAll": 604071.03
    },
    {
        "Licensee": "NM GREEN DOOR LLC/ RETAIL E BRAZOS",
        "Address": "815 E Brazos",
        "City": "Portales",
        "State": "NM",
        "Zip": "88130",
        "Lat": "34.19042",
        "Long": "-103.33015",
        "TotalMedicalSales": 9414.5,
        "TotalAdultUseSales": 6318,
        "TotalSalesAll": 15732.5
    },
    {
        "Licensee": "NMTO- ULTRA HEALTH CLOVIS DISPENSARY",
        "Address": "1512 N. Prince",
        "City": "Clovis",
        "State": "NM",
        "Zip": "88101",
        "Lat": "34.393582",
        "Long": "-103.196566",
        "TotalMedicalSales": 805960.17,
        "TotalAdultUseSales": 750537.39,
        "TotalSalesAll": 1556497.56
    },
    {
        "Licensee": "NMTO- ULTRA HEALTH LOS LUNAS DISPENSARY",
        "Address": "5A Thomas Road",
        "City": "Los Lunas",
        "State": "NM",
        "Zip": "87031",
        "Lat": "34.814209",
        "Long": "-106.761307",
        "TotalMedicalSales": 490472.5,
        "TotalAdultUseSales": 283586.89,
        "TotalSalesAll": 774059.39
    },
    {
        "Licensee": "NMTO- ULTRA HEALTH SUNLAND PARK DISPENSARY",
        "Address": "1155 McNutt Road",
        "City": "Sunland Park",
        "State": "NM",
        "Zip": "88063",
        "Lat": "31.80968",
        "Long": "-106.590955",
        "TotalMedicalSales": 658102.5,
        "TotalAdultUseSales": 5283499.18,
        "TotalSalesAll": 5941601.68
    },
    {
        "Licensee": "NMTO- ULTRA HEALTHALAMOGORDO DISPENSARY",
        "Address": "601 N White Sands Blvd",
        "City": "Alamogordo",
        "State": "NM",
        "Zip": "88310",
        "Lat": "32.901511",
        "Long": "-105.960298",
        "TotalMedicalSales": 1213690.42,
        "TotalAdultUseSales": 754592.32,
        "TotalSalesAll": 1968282.74
    },
    {
        "Licensee": "NMTO-ULTRA HEALTH",
        "Address": "524 S. 1st St.",
        "City": "Clayton",
        "State": "NM",
        "Zip": "88415",
        "Lat": "36.44344",
        "Long": "-103.179361",
        "TotalMedicalSales": 88804.52,
        "TotalAdultUseSales": 359547.29,
        "TotalSalesAll": 448351.81
    },
    {
        "Licensee": "NMTO-ULTRA HEALTH",
        "Address": "1907 St. Michaels Drive",
        "City": "Santa Fe",
        "State": "NM",
        "Zip": "87505",
        "Lat": "35.65991",
        "Long": "-105.96898",
        "TotalMedicalSales": 373637.13,
        "TotalAdultUseSales": 349106.88,
        "TotalSalesAll": 722744.01
    },
    {
        "Licensee": "NMTO-ULTRA HEALTH",
        "Address": "7401 Menaul Blvd. NE",
        "City": "Albuquerque",
        "State": "NM",
        "Zip": "87110",
        "Lat": "35.108845",
        "Long": "-106.531508",
        "TotalMedicalSales": 483262.41,
        "TotalAdultUseSales": 341376.16,
        "TotalSalesAll": 824638.57
    },
    {
        "Licensee": "NMTO-ULTRA HEALTH",
        "Address": "255 Camino Don Tomas",
        "City": "Bernalillo",
        "State": "NM",
        "Zip": "87004",
        "Lat": "35.31752",
        "Long": "-106.5534",
        "TotalMedicalSales": 431829.64,
        "TotalAdultUseSales": 395629.1,
        "TotalSalesAll": 827458.74
    },
    {
        "Licensee": "NMTO-ULTRA HEALTH",
        "Address": "3213 Central Ave. NE",
        "City": "Albuquerque",
        "State": "NM",
        "Zip": "87106",
        "Lat": "35.081436",
        "Long": "-106.626727",
        "TotalMedicalSales": 292467.23,
        "TotalAdultUseSales": 381875.07,
        "TotalSalesAll": 674342.3
    },
    {
        "Licensee": "NMTO-ULTRA HEALTH",
        "Address": "100 Coors Blvd., NW",
        "City": "Albuquerque",
        "State": "NM",
        "Zip": "87120",
        "Lat": "35.08052",
        "Long": "-106.70997",
        "TotalMedicalSales": 563227.4,
        "TotalAdultUseSales": 689556.97,
        "TotalSalesAll": 1252784.37
    },
    {
        "Licensee": "NMTO-ULTRA HEALTH",
        "Address": "3851 Southern Blvd., SE",
        "City": "Rio Rancho",
        "State": "NM",
        "Zip": "87124",
        "Lat": "35.241546",
        "Long": "-106.670425",
        "TotalMedicalSales": 686607.75,
        "TotalAdultUseSales": 666574.14,
        "TotalSalesAll": 1353181.89
    },
    {
        "Licensee": "NMTO-ULTRA HEALTH",
        "Address": "201 San Pedro, SE, Ste C",
        "City": "Albuquerque",
        "State": "NM",
        "Zip": "87108",
        "Lat": "35.134453",
        "Long": "-106.577532",
        "TotalMedicalSales": 415933.3,
        "TotalAdultUseSales": 361535.39,
        "TotalSalesAll": 777468.69
    },
    {
        "Licensee": "NMTO-ULTRA HEALTH",
        "Address": "3211 N Dal Paso",
        "City": "Hobbs",
        "State": "NM",
        "Zip": "88240",
        "Lat": "32.733511",
        "Long": "-103.12758",
        "TotalMedicalSales": 848643.3,
        "TotalAdultUseSales": 2412337.39,
        "TotalSalesAll": 3260980.69
    },
    {
        "Licensee": "NMTO-ULTRA HEALTH 4TH STREET DISPENSARY",
        "Address": "5700 4th Street NW",
        "City": "Albuquerque",
        "State": "NM",
        "Zip": "87109",
        "Lat": "35.134968",
        "Long": "-106.641969",
        "TotalMedicalSales": 327238.57,
        "TotalAdultUseSales": 342333.7,
        "TotalSalesAll": 669572.27
    },
    {
        "Licensee": "NMTO-ULTRA HEALTH ESPANOLA DISPENSARY",
        "Address": "811 A. North Riverside Drive",
        "City": "Espanola",
        "State": "NM",
        "Zip": "87532",
        "Lat": "36.023218",
        "Long": "-106.06371",
        "TotalMedicalSales": 613973.08,
        "TotalAdultUseSales": 544398.56,
        "TotalSalesAll": 1158371.64
    },
    {
        "Licensee": "NMTO-ULTRA HEALTH FARMINGTON DISPENSARY",
        "Address": "4251 E. Main Street, Ste.s DE",
        "City": "Farmington",
        "State": "NM",
        "Zip": "87402",
        "Lat": "36.774322",
        "Long": "-108.133162",
        "TotalMedicalSales": 252421.14,
        "TotalAdultUseSales": 565112.55,
        "TotalSalesAll": 817533.69
    },
    {
        "Licensee": "NMTO-ULTRA HEALTH GALLUP DISPENSARY",
        "Address": "200 W. Coal Ave",
        "City": "Gallup",
        "State": "NM",
        "Zip": "87301",
        "Lat": "35.523346",
        "Long": "-108.756814",
        "TotalMedicalSales": 348923.54,
        "TotalAdultUseSales": 1494240.7,
        "TotalSalesAll": 1843164.24
    },
    {
        "Licensee": "NMTO-ULTRA HEALTH LAS CRUCES DISPENSARY",
        "Address": "1600 South Valley Drive, Suite D",
        "City": "Las Cruces",
        "State": "NM",
        "Zip": "88005",
        "Lat": "32.29048",
        "Long": "-106.78447",
        "TotalMedicalSales": 1264725.91,
        "TotalAdultUseSales": 1149492,
        "TotalSalesAll": 2414217.91
    },