[
    {
        "SalesLicenseeId": "230e6b6c-04d8-47f0-baed-d0a30e3f09c5",
        "Licensee": " KURE, INC. DISPENSARY SANTA FE THIRD LOCATION",
        "Address": "3354 Cerrillos Rd",
        "City": "SANTA FE",
        "State": "NM",
        "Zip": "87507",
        "Lat": "35.64835",
        "Long": "-106.00216",
        "TotalMedicalSales": 1364208.58,
        "TotalAdultUseSales": 1963308.04,
        "TotalSalesAll": 3327516.62
    },
    {
        "SalesLicenseeId": "3d6fcd73-a6e3-4b81-94a6-cc77d1ecab4c",
        "Licensee": "1912 CANNABIS COMPANY LLC - 10TH ST RETAIL",
        "Address": "1009 E 10th St",
        "City": "ALAMOGORDO",
        "State": "NM",
        "Zip": "88310",
        "Lat": "32.90018",
        "Long": "-105.94957",
        "TotalMedicalSales": 114316.03,
        "TotalAdultUseSales": 163911.51,
        "TotalSalesAll": 278227.54
    },
    {
        "SalesLicenseeId": "3f7c4df2-cab9-490b-af5e-1f6b5efc660a",
        "Licensee": "420 TEA TIME LLC/ RETAIL- ROVER BLVD",
        "Address": "35 Rover Blvd",
        "City": "WHITE ROCK",
        "State": "NM",
        "Zip": "87544",
        "Lat": "35.82772",
        "Long": "-106.20685",
        "TotalMedicalSales": 82573.18,
        "TotalAdultUseSales": 192043.39,
        "TotalSalesAll": 274616.57
    },
    {
        "SalesLicenseeId": "4099d154-a7e3-48f9-a683-1ce55206e65b",
        "Licensee": "505 FARMS ABQ LLC - LOMAS BLVD RETAIL",
        "Address": "5401 Lomas Blvd Ste A",
        "City": "ALBUQUERQUE",
        "State": "NM",
        "Zip": "87110",
        "Lat": "35.08765",
        "Long": "-106.58447",
        "TotalMedicalSales": 18839.88,
        "TotalAdultUseSales": 13180.15,
        "TotalSalesAll": 32020.05
    },
    {
        "SalesLicenseeId": "0de17c17-9744-4565-9761-352652ecaf92",
        "Licensee": "505FOUR20 - N MAIN RETAIL",
        "Address": "221 N Main St",
        "City": "BELEN",
        "State": "NM",
        "Zip": "87002",
        "Lat": "34.66224",
        "Long": "-106.77657",
        "TotalMedicalSales": 264483.57,
        "TotalAdultUseSales": 490567.25,
        "TotalSalesAll": 755050.82
    },
    {
        "SalesLicenseeId": "2291fa83-127d-42c0-b2d3-87901e4c7416",
        "Licensee": "505FOUR20 - N MAIN RETAIL",
        "Address": "3646 NM 47",
        "City": "PERALTA",
        "State": "NM",
        "Zip": "87042",
        "Lat": "34.83258",
        "Long": "-106.69126",
        "TotalMedicalSales": 10566.29,
        "TotalAdultUseSales": 44576.19,
        "TotalSalesAll": 55142.48
    },
    {
        "SalesLicenseeId": "5717e509-2012-458f-9d17-15f26ac45dd8",
        "Licensee": "911 KRONIC/ RETAIL W APACHE ST",
        "Address": "911 W Apache St",
        "City": "FARMINGTON",
        "State": "NM",
        "Zip": "87401",
        "Lat": "36.73372",
        "Long": "-108.22193",
        "TotalMedicalSales": 0,
        "TotalAdultUseSales": 15041,
        "TotalSalesAll": 15041
    },
    {
        "SalesLicenseeId": "23d990be-b89d-46ba-974a-c9add201d106",
        "Licensee": "A NICE DREAM INC - EDITH RETAIL",
        "Address": "5050 Edith",
        "City": "ALBUQUERQUE",
        "State": "NM",
        "Zip": "87107",
        "Lat": "35.13109",
        "Long": "-106.6273",
        "TotalMedicalSales": 1443.54,
        "TotalAdultUseSales": 396.51,
        "TotalSalesAll": 1840.05
    },
    {
        "SalesLicenseeId": "2e28fc60-ebee-43f5-966f-2f15a23b9034",
        "Licensee": "ABOVE GRADE CRAFT CANNABIS LLC - SAN PEDRO BLVD RETAIL",
        "Address": "1330 San Pedro Dr NE Suite 103",
        "City": "ALBUQUERQUE",
        "State": "NM",
        "Zip": "87110",
        "Lat": "35.09043",
        "Long": "-106.57719",
        "TotalMedicalSales": 17392.14,
        "TotalAdultUseSales": 41712.57,
        "TotalSalesAll": 59104.72
    },
    {
        "SalesLicenseeId": "48b1295a-cf17-4d8a-8ec2-6aa1e2aa8200",
        "Licensee": "AKESO BOTANICALS LLC",
        "Address": "200 Conway",
        "City": "LAS CRUCES",
        "State": "NM",
        "Zip": "88005",
        "Lat": "32.27726",
        "Long": "-106.76909",
        "TotalMedicalSales": 27362.71,
        "TotalAdultUseSales": 37742.13,
        "TotalSalesAll": 65104.84
    },
    {
        "SalesLicenseeId": "1d000610-6fb4-41c6-b39e-8070c7bedbda",
        "Licensee": "ALL IN 107 MAIN ST LLC - MAIN ST, PORTALES",
        "Address": "107 S Main Ave",
        "City": "PORTALES",
        "State": "NM",
        "Zip": "88130",
        "Lat": "34.18653",
        "Long": "-103.33696",
        "TotalMedicalSales": 11211.57,
        "TotalAdultUseSales": 37997.53,
        "TotalSalesAll": 49209.1
    },
    {
        "SalesLicenseeId": "0c4ac240-ec68-4626-ac8b-f7709614fe99",
        "Licensee": "AMNESIA DISPENSARY  ACCESSORIES",
        "Address": "2723 San Mateo Blvd NE, Suite B",
        "City": "ALBUQUERQUE",
        "State": "NM",
        "Zip": "87110",
        "Lat": "35.102909",
        "Long": "-106.58681",
        "TotalMedicalSales": 447343.94,
        "TotalAdultUseSales": 1595756.32,
        "TotalSalesAll": 2043100.26
    },
    {
        "SalesLicenseeId": "645b5066-a77e-4a82-9c38-314ef93405be",
        "Licensee": "AMNESIA DISPENSARY  ACCESSORIES - ISLETA BLVD RETAIL",
        "Address": "2035 Isleta Blvd SW Ste 1",
        "City": "ALBUQUERQUE",
        "State": "NM",
        "Zip": "87105",
        "Lat": "35.04521",
        "Long": "-106.67917",
        "TotalMedicalSales": 59139.08,
        "TotalAdultUseSales": 143110.21,
        "TotalSalesAll": 202249.29
    },
    {
        "SalesLicenseeId": "4ae1fc62-9814-40aa-8602-d75d2d0dcf73",
        "Licensee": "ANIMACANN INC - 20TH ST RETAIL",
        "Address": "1901 E 20th St",
        "City": "FARMINGTON",
        "State": "NM",
        "Zip": "87401",
        "Lat": "36.74787",
        "Long": "-108.1817",
        "TotalMedicalSales": 62158.19,
        "TotalAdultUseSales": 676183.43,
        "TotalSalesAll": 738341.63
    },
    {
        "SalesLicenseeId": "0c58076a-6a56-4d35-840a-1cb442a8f78f",
        "Licensee": "ASTRO BUDS LLC - MCCOMBS RD RETAIL",
        "Address": "308 McCombs Rd",
        "City": "CHAPARRAL",
        "State": "NM",
        "Zip": "88081",
        "Lat": "32.01755",
        "Long": "-106.40944",
        "TotalMedicalSales": 175278.27,
        "TotalAdultUseSales": 2396762.02,
        "TotalSalesAll": 2572040.29
    },
    {
        "SalesLicenseeId": "046a2215-2d55-42c5-ab67-ea7f5fb229d5",
        "Licensee": "AYAS 2021 LLC - NORRIS ST RETAIL",
        "Address": "408 N Norris St",
        "City": "CLOVIS",
        "State": "NM",
        "Zip": "88101",
        "Lat": "34.40215",
        "Long": "-103.17924",
        "TotalMedicalSales": 126099.82,
        "TotalAdultUseSales": 554847.08,
        "TotalSalesAll": 680946.9
    },
    {
        "SalesLicenseeId": "21762ebc-ee89-42e7-af61-9af983cb80af",
        "Licensee": "BEFORE DAYLITE FARMS LLC - RETAIL",
        "Address": "191 Alameda Blvd NW",
        "City": "ALBUQUERQUE",
        "State": "NM",
        "Zip": "87114",
        "Lat": "35.18835",
        "Long": "-106.61328",
        "TotalMedicalSales": 9258.96,
        "TotalAdultUseSales": 23795.5,
        "TotalSalesAll": 33054.46
    },
    {
        "SalesLicenseeId": "46f8fb03-695e-433d-b9a9-af9280b4417c",
        "Licensee": "BESOS LLC/ RETAIL FUTURITY DR",
        "Address": "1805 Futurity Dr",
        "City": "SUNLAND PARK",
        "State": "NM",
        "Zip": "88603",
        "Lat": "31.80516",
        "Long": "-106.56653",
        "TotalMedicalSales": 2661.71,
        "TotalAdultUseSales": 59272.57,
        "TotalSalesAll": 61934.28
    },
    {
        "SalesLicenseeId": "0547001b-83a1-43a0-a0c7-72d0e8ac6da7",
        "Licensee": "BEST DAZE",
        "Address": "800 Mills Ave",
        "City": "LAS VEGAS",
        "State": "NM",
        "Zip": "87701",
        "Lat": "35.60493",
        "Long": "-105.2249",
        "TotalMedicalSales": 638527.31,
        "TotalAdultUseSales": 970512.08,
        "TotalSalesAll": 1609039.39
    },
    {
        "SalesLicenseeId": "6b26c21c-fd91-4ddc-b6db-8ecbbe244aee",
        "Licensee": "BEST DAZE",
        "Address": "1609 Isleta Blvd B",
        "City": "ALBUQUERQUE",
        "State": "NM",
        "Zip": "87105",
        "Lat": "35.05325",
        "Long": "-106.678",
        "TotalMedicalSales": 188745.08,
        "TotalAdultUseSales": 398316.67,
        "TotalSalesAll": 587061.75
    },
    {
        "SalesLicenseeId": "10d6fe63-63d1-4c0c-9293-596929ea2eac",
        "Licensee": "BEST DAZE - FORMERLY GIVING TREE ORGANICS-PRODUCTION",
        "Address": "527  527B N. Riverside Dr.",
        "City": "ESPANOLA",
        "State": "NM",
        "Zip": "87532",
        "Lat": "36.023218",
        "Long": "-106.06371",
        "TotalMedicalSales": 1046822.01,
        "TotalAdultUseSales": 1436813.91,
        "TotalSalesAll": 2483635.92
    },
    {
        "SalesLicenseeId": "74671c71-f5cb-45c4-bc6a-af47179a295b",
        "Licensee": "BEST DAZE RETAIL",
        "Address": " 5212 4th St NW",
        "City": "ALBUQUERQUE",
        "State": "NM",
        "Zip": "87107",
        "Lat": "35.13857",
        "Long": "-106.641295",
        "TotalMedicalSales": 130894.33,
        "TotalAdultUseSales": 188814.03,
        "TotalSalesAll": 319708.36
    },
    {
        "SalesLicenseeId": "1815f1e8-6a7b-4225-b6f1-5cbdd002a482",
        "Licensee": "BEST DAZE RETAIL",
        "Address": "5212 4th St NW",
        "City": "ALBUQUERQUE",
        "State": "NM",
        "Zip": "87107",
        "Lat": "35.13526",
        "Long": "-106.64154",
        "TotalMedicalSales": 203236.41,
        "TotalAdultUseSales": 334320.69,
        "TotalSalesAll": 537557.1
    },
    {
        "SalesLicenseeId": "0b000075-6716-42c1-866e-4befc3019485",
        "Licensee": "BEST DAZE RETAIL",
        "Address": "820 Mercer St",
        "City": "SANTA FE",
        "State": "NM",
        "Zip": "87505",
        "Lat": "35.679189",
        "Long": "-105.954293",
        "TotalMedicalSales": 1075838.62,
        "TotalAdultUseSales": 1847393.07,
        "TotalSalesAll": 2923231.69
    },
    {
        "SalesLicenseeId": "196a2815-24db-4ec2-8283-1a66f8a197fc",
        "Licensee": "BEST DAZE RETAIL",
        "Address": "200 Coors Blvd NW",
        "City": "ALBUQUERQUE",
        "State": "NM",
        "Zip": "87105",
        "Lat": "35.08238",
        "Long": "-106.7103",
        "TotalMedicalSales": 513861.49,
        "TotalAdultUseSales": 1147795.85,
        "TotalSalesAll": 1661657.34
    },
    {
        "SalesLicenseeId": "1ce1959d-b21f-47cc-8ad2-ed6c94e40b22",
        "Licensee": "BEST DAZE RETAIL SANTA FE",
        "Address": "7 Avenida Vista Grande",
        "City": "SANTA FE",
        "State": "NM",
        "Zip": "87508",
        "Lat": "35.539211",
        "Long": "-105.897789",
        "TotalMedicalSales": 613295.89,
        "TotalAdultUseSales": 714898.93,
        "TotalSalesAll": 1328194.82
    },
    {
        "SalesLicenseeId": "059985b1-8aa0-4e0d-a150-71f26f20c724",
        "Licensee": "BEST DAZE RETAIL SANTA FE",
        "Address": "4641 Airport Rd",
        "City": "SANTA FE",
        "State": "NM",
        "Zip": "87507",
        "Lat": "35.638455",
        "Long": "-106.024415",
        "TotalMedicalSales": 1694882.08,
        "TotalAdultUseSales": 2229429.64,
        "TotalSalesAll": 3924311.72
    },
    {
        "SalesLicenseeId": "0b1c657d-2501-4eaf-bb64-484169852d10",
        "Licensee": "BIG RANCH CULTIVATION - HUDSON RETAIL",
        "Address": "909 N Hudson",
        "City": "SILVER CITY",
        "State": "NM",
        "Zip": "88061",
        "Lat": "32.77514",
        "Long": "-108.2746",
        "TotalMedicalSales": 66466.11,
        "TotalAdultUseSales": 154350.68,
        "TotalSalesAll": 220816.78
    },
    {
        "SalesLicenseeId": "12dcf7f0-4ee9-48ad-a2e8-3f82540313a7",
        "Licensee": "BIGHORN VENTURES- RETAIL",
        "Address": "536 Paseo del Pueblo Norte",
        "City": "TAOS",
        "State": "NM",
        "Zip": "87571",
        "Lat": "36.41598",
        "Long": "-105.56975",
        "TotalMedicalSales": 8934,
        "TotalAdultUseSales": 44278.75,
        "TotalSalesAll": 53212.75
    },
    {
        "SalesLicenseeId": "129b62eb-7b2c-4b18-8002-3f7fb128eae6",
        "Licensee": "BIROSKA SMOKE SHOP",
        "Address": "212 3rd St SW",
        "City": "ALBUQUERQUE",
        "State": "NM",
        "Zip": "87102",
        "Lat": "35.08324",
        "Long": "-106.65062",
        "TotalMedicalSales": 5142.28,
        "TotalAdultUseSales": 13052.38,
        "TotalSalesAll": 18194.66
    },
    {
        "SalesLicenseeId": "a5db6166-7114-479c-a7e9-bdb6a7328cae",
        "Licensee": "BLACK FOREST FARMS LLC",
        "Address": "213 Wabash Street",
        "City": "LORDSBURG",
        "State": "NM",
        "Zip": "88045",
        "Lat": "32.34412",
        "Long": "-108.71281",
        "TotalMedicalSales": 509.07,
        "TotalAdultUseSales": 8937.33,
        "TotalSalesAll": 9446.4
    },
    {
        "SalesLicenseeId": "d9d121a2-905e-48a5-82e1-0a6bc36fe649",
        "Licensee": "BLAZED CANNABIS LLC - CALIENTE RD RETAIL",
        "Address": "7 Caliente Rd",
        "City": "SANTA FE",
        "State": "NM",
        "Zip": "87507",
        "Lat": "35.53629",
        "Long": "-105.89042",
        "TotalMedicalSales": 4565.91,
        "TotalAdultUseSales": 7042.84,
        "TotalSalesAll": 11608.75
    },
    {
        "SalesLicenseeId": "13cda9e1-6474-426d-bd4c-7d792fb14cf4",
        "Licensee": "BLUNTLEY LLC/ RETAIL SOUTH MAIN STREET",
        "Address": "3161 North Main Street",
        "City": "LAS CRUCES",
        "State": "NM",
        "Zip": "88001",
        "Lat": "32.34385",
        "Long": "-106.77407",
        "TotalMedicalSales": 18425.57,
        "TotalAdultUseSales": 57684.93,
        "TotalSalesAll": 76110.5
    },
    {
        "SalesLicenseeId": "25e0e8e3-9edf-49c8-b794-1fc45e8aa9c8",
        "Licensee": "BOA HOLISTIC LLC - RETAIL",
        "Address": "20 Offutt Canyon Rd",
        "City": "SILVER CITY",
        "State": "NM",
        "Zip": "88061",
        "Lat": "32.76848",
        "Long": "-108.24536",
        "TotalMedicalSales": 2317.74,
        "TotalAdultUseSales": 13210.27,
        "TotalSalesAll": 15528.01
    },
    {
        "SalesLicenseeId": "0254338a-1ff9-4f83-84c1-f7c5eeb0076f",
        "Licensee": "BOSQUE BUDS LLC/ RETAIL 6TH ST NW",
        "Address": "2505 6th St NW",
        "City": "ALBUQUERQUE",
        "State": "NM",
        "Zip": "87102",
        "Lat": "35.11043",
        "Long": "-106.64875",
        "TotalMedicalSales": 11275.13,
        "TotalAdultUseSales": 26475.17,
        "TotalSalesAll": 37750.3
    },
    {
        "SalesLicenseeId": "e26672f5-20d2-45db-b3ce-2cf6ecad36fc",
        "Licensee": "BOTANICAL INFUSIONS - N SOLANO DR RETAIL",
        "Address": "1960 N Solano Dr",
        "City": "LAS CRUCES",
        "State": "NM",
        "Zip": "88001",
        "Lat": "32.32696",
        "Long": "-106.77801",
        "TotalMedicalSales": 2157.27,
        "TotalAdultUseSales": 9031.8,
        "TotalSalesAll": 11189.07
    },
    {
        "SalesLicenseeId": "5523aa32-457d-4db8-8112-bbc6d21077af",
        "Licensee": "BOTANICAL INFUSIONS/ RETAIL SOUTH SOLANO DRIVE",
        "Address": "1128 South Solano Drive",
        "City": "LAS CRUCES",
        "State": "NM",
        "Zip": "88001",
        "Lat": "32.3009",
        "Long": "-106.76305",
        "TotalMedicalSales": 28509.77,
        "TotalAdultUseSales": 47755.44,
        "TotalSalesAll": 76265.21
    },
    {
        "SalesLicenseeId": "08dd5654-cdd6-42e2-aa97-7e8ac153b579",
        "Licensee": "BOUTIQUE HIGH - LOMAS BLVD RETAIL",
        "Address": "13025 Lomas Blvd NE Ste B",
        "City": "ALBUQUERQUE",
        "State": "NM",
        "Zip": "87112",
        "Lat": "35.08675",
        "Long": "-106.50216",
        "TotalMedicalSales": 126807.75,
        "TotalAdultUseSales": 381445.85,
        "TotalSalesAll": 508253.6
    },
    {
        "SalesLicenseeId": "605aeb99-cbc2-4d93-bb37-40203bdf59c9",
        "Licensee": "BRIGHT BLOOM - SOUTH MAIN RETAIL",
        "Address": "1625 South Main 1",
        "City": "LAS CRUCES",
        "State": "NM",
        "Zip": "88005",
        "Lat": "32.29447",
        "Long": "-106.77847",
        "TotalMedicalSales": 2555.1,
        "TotalAdultUseSales": 2491.77,
        "TotalSalesAll": 5046.87
    },
    {
        "SalesLicenseeId": "a072a3cd-0f87-41b1-951b-38e127a64086",
        "Licensee": "BRYANS GREEN CARE/ RETAIL SOUTH MAIN",
        "Address": "2024 South Main",
        "City": "LAS CRUCES",
        "State": "NM",
        "Zip": "88005",
        "Lat": "32.28669",
        "Long": "-106.77401",
        "TotalMedicalSales": 4316.21,
        "TotalAdultUseSales": 9455.14,
        "TotalSalesAll": 13771.35
    },
    {
        "SalesLicenseeId": "4a563867-3eff-4c5c-bf37-ce1b19d7fed9",
        "Licensee": "BRYANS GREENCARE RETAIL",
        "Address": " 3108 North Main",
        "City": "ROSWELL",
        "State": "NM",
        "Zip": "88201",
        "Lat": "33.629001",
        "Long": "-104.553122",
        "TotalMedicalSales": 19487.7,
        "TotalAdultUseSales": 62428.35,
        "TotalSalesAll": 81916.05
    },
    {
        "SalesLicenseeId": "0284940b-cbed-4dd6-9a37-0b6cb28890a0",
        "Licensee": "BRYANS GREENCARE RETAIL",
        "Address": "3108 North Main",
        "City": "ROSWELL",
        "State": "NM",
        "Zip": "88201",
        "Lat": "33.629001",
        "Long": "-104.553122",
        "TotalMedicalSales": 40799.76,
        "TotalAdultUseSales": 256617.87,
        "TotalSalesAll": 297417.63
    },
    {
        "SalesLicenseeId": "0dffa8c7-79e5-4ce1-88a4-3ef15e204abe",
        "Licensee": "BRYANS GREENCARE RETAIL",
        "Address": " 2117 Sudderth",
        "City": "RUIDOSO",
        "State": "NM",
        "Zip": "88345",
        "Lat": "33.328558",
        "Long": "-105.663388",
        "TotalMedicalSales": 19904.7,
        "TotalAdultUseSales": 141102.28,
        "TotalSalesAll": 161006.98
    },
    {
        "SalesLicenseeId": "15a010ed-401b-4d6a-81c1-e9d874f1ffd9",
        "Licensee": "BRYANS GREENCARE RETAIL",
        "Address": "2117 Sudderth",
        "City": "RUIDOSO",
        "State": "NM",
        "Zip": "88345",
        "Lat": "33.33059",
        "Long": "-105.6676",
        "TotalMedicalSales": 27973.79,
        "TotalAdultUseSales": 187593.16,
        "TotalSalesAll": 215566.95
    },
    {
        "SalesLicenseeId": "16955aa1-4116-4563-92b3-75e7ac749621",
        "Licensee": "BRYANS GREENCARE RETAIL",
        "Address": "201 North Grimes",
        "City": "HOBBS",
        "State": "NM",
        "Zip": "88240",
        "Lat": "32.714508",
        "Long": "-103.144847",
        "TotalMedicalSales": 214423.18,
        "TotalAdultUseSales": 1980425.76,
        "TotalSalesAll": 2194848.94
    },
    {
        "SalesLicenseeId": "01a1eb92-9d72-4d1d-a0db-dabc6e4709f5",
        "Licensee": "BUD BOARD DISPENSARY LLC - PIERCE RETAIL",
        "Address": "618 W Pierce",
        "City": "CARLSBAD",
        "State": "NM",
        "Zip": "88220",
        "Lat": "32.439778",
        "Long": "-104.255908",
        "TotalMedicalSales": 720561.31,
        "TotalAdultUseSales": 2709098.46,
        "TotalSalesAll": 3429659.77
    },
    {
        "SalesLicenseeId": "024e02ec-b7dc-4832-80f1-5e01bc30fbf4",
        "Licensee": "BUD BROTHERS LLC - HOBBS RETAIL",
        "Address": "2702 W Marland Blvd",
        "City": "HOBBS",
        "State": "NM",
        "Zip": "88240",
        "Lat": "32.69685",
        "Long": "-103.17012",
        "TotalMedicalSales": 1563.04,
        "TotalAdultUseSales": 397402.73,
        "TotalSalesAll": 398965.77
    },
    {
        "SalesLicenseeId": "06f49174-6f3b-43eb-9106-4d6feff05ee8",
        "Licensee": "BUD IN BUD OUT LLC",
        "Address": "915 E Main St",
        "City": "TUCUMCARI",
        "State": "NM",
        "Zip": "88401",
        "Lat": "35.17923",
        "Long": "-103.71525",
        "TotalMedicalSales": 71977.01,
        "TotalAdultUseSales": 192601.75,
        "TotalSalesAll": 264578.76
    },
    {
        "SalesLicenseeId": "2ae25dbd-ee28-4285-982e-9902d377007c",
        "Licensee": "BUDDER PROS",
        "Address": "121 US Route 66",
        "City": "MORIARTY",
        "State": "NM",
        "Zip": "87035",
        "Lat": "34.99005",
        "Long": "-106.049189",
        "TotalMedicalSales": 138793.49,
        "TotalAdultUseSales": 338004.84,
        "TotalSalesAll": 476798.33
    },
    {
        "SalesLicenseeId": "58776b7d-0c8b-41c8-83e3-62ad0f78be0c",
        "Licensee": "BUDDING BAR AND DISPENSARY LLC/ RETAIL S MAIN ST",
        "Address": "804 S Main St",
        "City": "BELEN",
        "State": "NM",
        "Zip": "87002",
        "Lat": "34.65282",
        "Long": "-106.77885",
        "TotalMedicalSales": 5780.16,
        "TotalAdultUseSales": 28260.21,
        "TotalSalesAll": 34040.37
    },
    {
        "SalesLicenseeId": "7b5eb0f1-3528-4e37-bdfd-d1c48973a4d8",
        "Licensee": "BUDDING GENIUS LLC/ RETAIL BROADWAY",
        "Address": "512 E Broadway",
        "City": "TATUM",
        "State": "NM",
        "Zip": "88267",
        "Lat": "33.25721",
        "Long": "-103.31214",
        "TotalMedicalSales": 8186.48,
        "TotalAdultUseSales": 72260.84,
        "TotalSalesAll": 80447.32
    },
    {
        "SalesLicenseeId": "02bd9040-e1c6-40e0-a9f3-eada539ec147",
        "Licensee": "BUDDING HOPE",
        "Address": "1514 Coors Blvd Ste B",
        "City": "ALBUQUERQUE",
        "State": "NM",
        "Zip": "87121",
        "Lat": "35.191492",
        "Long": "-106.657001",
        "TotalMedicalSales": 959748.72,
        "TotalAdultUseSales": 995347.18,
        "TotalSalesAll": 1955095.9
    },
    {
        "SalesLicenseeId": "7fa42c1b-763a-4c0a-baac-0244ee8eac79",
        "Licensee": "BUDDING HOPE",
        "Address": "7001 Bluewater Rd NW",
        "City": "ALBUQUERQUE",
        "State": "NM",
        "Zip": "87121",
        "Lat": "35.08588",
        "Long": "-106.7172",
        "TotalMedicalSales": 80,
        "TotalAdultUseSales": 0,
        "TotalSalesAll": 80
    },
    {
        "SalesLicenseeId": "0c0fa4fc-9130-4b7f-9ff9-b0781c8bae6a",
        "Licensee": "BUDDING HOPE - SAN MATEO RETAIL",
        "Address": "2621 San Mateo Blvd NE Ste B",
        "City": "ALBUQUERQUE",
        "State": "NM",
        "Zip": "87110",
        "Lat": "35.102909",
        "Long": "-106.58681",
        "TotalMedicalSales": 936296.16,
        "TotalAdultUseSales": 788334.99,
        "TotalSalesAll": 1724631.15
    },
    {
        "SalesLicenseeId": "008da7a2-5222-4073-a6a1-7a83609ddcd7",
        "Licensee": "BUFFALO BUD FARMING CO LLC - RETAIL",
        "Address": "910 N Pope St",
        "City": "SILVER CITY",
        "State": "NM",
        "Zip": "88061",
        "Lat": "32.77495",
        "Long": "-108.27596",
        "TotalMedicalSales": 181179.44,
        "TotalAdultUseSales": 271757.99,
        "TotalSalesAll": 452937.43
    },
    {
        "SalesLicenseeId": "04e28bd2-3e70-43a1-9303-4f56cb5ad247",
        "Licensee": "BURNIN BARRELS/ RETAIL W AZTEC BLVD",
        "Address": "2210 W Aztec Blvd",
        "City": "AZTEC",
        "State": "NM",
        "Zip": "87410",
        "Lat": "36.82493",
        "Long": "-108.03061",
        "TotalMedicalSales": 18205.08,
        "TotalAdultUseSales": 304130.52,
        "TotalSalesAll": 322335.6
    },
    {
        "SalesLicenseeId": "5fcd3335-1be6-4a23-b26b-28a588819b45",
        "Licensee": "BX3 ENTERPRISES LLC - RETAIL",
        "Address": "100 Mountain Park",
        "City": "ALBUQUERQUE",
        "State": "NM",
        "Zip": "87114",
        "Lat": "35.19464",
        "Long": "-106.60708",
        "TotalMedicalSales": 21574.37,
        "TotalAdultUseSales": 48042.85,
        "TotalSalesAll": 69617.22
    },
    {
        "SalesLicenseeId": "3ec638cc-9ddd-4b57-b95f-7e50783e9704",
        "Licensee": "C.G. CORRIGAN DISPENSERY",
        "Address": "1400 Main St. STE D",
        "City": "LOS LUNAS",
        "State": "NM",
        "Zip": "87031",
        "Lat": "34.804828",
        "Long": "-106.705262",
        "TotalMedicalSales": 819326.61,
        "TotalAdultUseSales": 839726.87,
        "TotalSalesAll": 1659053.48
    },
    {
        "SalesLicenseeId": "6f254b30-e0b1-47d3-8b0e-84d223aeaaaf",
        "Licensee": "C.G. CORRIGAN-SANTA FE",
        "Address": "802 Early St.",
        "City": "SANTA FE",
        "State": "NM",
        "Zip": "87505",
        "Lat": "35.67799",
        "Long": "-105.95252",
        "TotalMedicalSales": 496133.07,
        "TotalAdultUseSales": 455716.08,
        "TotalSalesAll": 951849.15
    },
    {
        "SalesLicenseeId": "863c5c9f-41b4-4180-a6f3-300778431887",
        "Licensee": "CANNA BUDDHA LLC/ RETAIL N LINAM ST",
        "Address": "1003 N Linam St",
        "City": "HOBBS",
        "State": "NM",
        "Zip": "88240",
        "Lat": "32.71043",
        "Long": "-103.13895",
        "TotalMedicalSales": 40209.29,
        "TotalAdultUseSales": 135697.81,
        "TotalSalesAll": 175907.1
    },
    {
        "SalesLicenseeId": "16fc4ff0-d403-4df0-971b-a7c2f06db915",
        "Licensee": "CANNABLISS - MADRID RETAIL",
        "Address": "2883 A NM 14",
        "City": "MADRID",
        "State": "NM",
        "Zip": "87010",
        "Lat": "35.40877",
        "Long": "-106.15175",
        "TotalMedicalSales": 45334.64,
        "TotalAdultUseSales": 294850.29,
        "TotalSalesAll": 340184.93
    },
    {
        "SalesLicenseeId": "1945234c-9dce-40c1-899c-e90492d6e919",
        "Licensee": "CANNACEUTICS DISPENSARY",
        "Address": "4316 Carlisle Blvd. NE, Suite D",
        "City": "ALBUQUERQUE",
        "State": "NM",
        "Zip": "87107",
        "Lat": "35.117814",
        "Long": "-106.604084",
        "TotalMedicalSales": 826769.96,
        "TotalAdultUseSales": 0,
        "TotalSalesAll": 826769.96
    },
    {
        "SalesLicenseeId": "0674abdd-f00c-4fbc-a1f0-448f33a61c15",
        "Licensee": "CANNACOLLC - 4TH ST RETAIL",
        "Address": "4212 4th St NW",
        "City": "ALBUQUERQUE",
        "State": "NM",
        "Zip": "87107",
        "Lat": "35.13857",
        "Long": "-106.641295",
        "TotalMedicalSales": 81042.97,
        "TotalAdultUseSales": 264328.87,
        "TotalSalesAll": 345371.84
    },
    {
        "SalesLicenseeId": "05e8833c-2ae3-4aca-ab5e-6b6fe6551cbc",
        "Licensee": "CANNAVERSE - NEVADA AVE RETAIL",
        "Address": "2305 Nevada Ave",
        "City": "LAS CRUCES",
        "State": "NM",
        "Zip": "88001",
        "Lat": "32.30864",
        "Long": "-106.75104",
        "TotalMedicalSales": 206029.85,
        "TotalAdultUseSales": 439185.68,
        "TotalSalesAll": 645215.57
    },
    {
        "SalesLicenseeId": "06974e68-a1d7-4942-a21b-9e2ce2e11218",
        "Licensee": "CANNIBEAN",
        "Address": "4301 Central NE suite C",
        "City": "ALBUQUERQUE",
        "State": "NM",
        "Zip": "87108",
        "Lat": "35.0795",
        "Long": "-106.59582",
        "TotalMedicalSales": 7907.75,
        "TotalAdultUseSales": 0,
        "TotalSalesAll": 7907.75
    },
    {
        "SalesLicenseeId": "053e8f2f-5878-492f-b28c-67f5e5bc91cd",
        "Licensee": "CANVAS ORGANICS ENTERPRISES LLC",
        "Address": "3000 San Pedro Drive NE Suite B",
        "City": "ALBUQUERQUE",
        "State": "NM",
        "Zip": "87110",
        "Lat": "35.084103",
        "Long": "-106.650985",
        "TotalMedicalSales": 308750.79,
        "TotalAdultUseSales": 692351.2,
        "TotalSalesAll": 1001101.98
    },
    {
        "SalesLicenseeId": "bd3cb655-4465-4daa-963a-2599e59755bb",
        "Licensee": "CANVAS ORGANICS ENTERPRISES LLC - EUBANK RETAIL",
        "Address": "401 Eubank Blvd SE Ste. D",
        "City": "ALBUQUERQUE",
        "State": "NM",
        "Zip": "87123",
        "Lat": "35.06866",
        "Long": "-106.53309",
        "TotalMedicalSales": 5606.5,
        "TotalAdultUseSales": 11369.5,
        "TotalSalesAll": 16976
    },
    {
        "SalesLicenseeId": "3776b825-e8b0-4262-988d-c67641cde030",
        "Licensee": "CARDIEL BOTANICA LTD CO - MCNUTT RD RETAIL",
        "Address": "1685 McNutt",
        "City": "SUNLAND PARK",
        "State": "NM",
        "Zip": "88063",
        "Lat": "31.79606",
        "Long": "-106.56921",
        "TotalMedicalSales": 37024.89,
        "TotalAdultUseSales": 123625.85,
        "TotalSalesAll": 160650.74
    },
    {
        "SalesLicenseeId": "0d7a62be-b21c-491d-8d3a-0630312fbc1e",
        "Licensee": "CARDIEL BOTANICA LTD CO - PALOMAS PL RETAIL",
        "Address": "100 Palomas Pl Ste B-2",
        "City": "SUNLAND PARK",
        "State": "NM",
        "Zip": "88063",
        "Lat": "31.81202",
        "Long": "-106.59384",
        "TotalMedicalSales": 55683.83,
        "TotalAdultUseSales": 431250.63,
        "TotalSalesAll": 486934.46
    },
    {
        "SalesLicenseeId": "27923c20-a868-4884-9d4a-fe52e64e86ec",
        "Licensee": "CAROLINAS CHOICE LLC/ RETAIL ENTERPRISE RD",
        "Address": "1404 Enterprise Rd",
        "City": "SOCORRO",
        "State": "NM",
        "Zip": "87801",
        "Lat": "34.02840651490425",
        "Long": "-106.92064046859741",
        "TotalMedicalSales": 41.27,
        "TotalAdultUseSales": 228,
        "TotalSalesAll": 269.27
    },
    {
        "SalesLicenseeId": "165e88c7-cb2a-48e1-b624-6b6a02983d28",
        "Licensee": "CAROLINAS CHOICE, LLC - COPPER AVE RETAIL",
        "Address": "13600 Copper Ave NE",
        "City": "ALBUQUERQUE",
        "State": "NM",
        "Zip": "87123",
        "Lat": "35.07869",
        "Long": "-106.49779",
        "TotalMedicalSales": 121548.17,
        "TotalAdultUseSales": 294027.89,
        "TotalSalesAll": 415576.06
    },
    {
        "SalesLicenseeId": "3184cccd-566c-4c86-8a14-c20bbd25eaf5",
        "Licensee": "CARVER FAMILY FARM- RETAIL MICRO",
        "Address": " 8917 Adams ST NE",
        "City": "ALBUQUERQUE",
        "State": "NM",
        "Zip": "87113",
        "Lat": "35.083681",
        "Long": "-106.594187",
        "TotalMedicalSales": 307283.32,
        "TotalAdultUseSales": 284413.35,
        "TotalSalesAll": 591696.67
    },
    {
        "SalesLicenseeId": "0ff27c18-9e99-4c0f-baef-e1fbd4a26097",
        "Licensee": "CARVER FAMILY FARM- RETAIL MICRO",
        "Address": "8917 Adams ST NE",
        "City": "ALBUQUERQUE",
        "State": "NM",
        "Zip": "87113",
        "Lat": "35.18765",
        "Long": "-106.59498",
        "TotalMedicalSales": 501919.3,
        "TotalAdultUseSales": 640502.13,
        "TotalSalesAll": 1142421.43
    },
    {
        "SalesLicenseeId": "00ea1b79-da56-4f06-b25a-703e0e7c3797",
        "Licensee": "CAVE CITY CANNABIS CO LLP - CHURCH ST RETAIL",
        "Address": "108 E Church St",
        "City": "CARLSBAD",
        "State": "NM",
        "Zip": "88220",
        "Lat": "32.42869",
        "Long": "-104.2256",
        "TotalMedicalSales": 183888.65,
        "TotalAdultUseSales": 441754.87,
        "TotalSalesAll": 625643.52
    },
    {
        "SalesLicenseeId": "023080d7-ff5a-45c6-9df7-02383b046f65",
        "Licensee": "CCC HOLDINGS, LLC",
        "Address": "102 Mexican Avenue, Unit 420",
        "City": "CLOUDCROFT",
        "State": "NM",
        "Zip": "88317",
        "Lat": "32.95962",
        "Long": "-105.74347",
        "TotalMedicalSales": 74128.8,
        "TotalAdultUseSales": 409984.3,
        "TotalSalesAll": 484113.1
    },
    {
        "SalesLicenseeId": "0eba0a4e-ca5a-4fe4-9497-a4f7de64e9c5",
        "Licensee": "CCC HOLDINGS, LLC - JAMES CANYON RETAIL",
        "Address": "109 James Canyon Unit 8",
        "City": "CLOUDCROFT",
        "State": "NM",
        "Zip": "88317",
        "Lat": "32.95724",
        "Long": "-105.74367",
        "TotalMedicalSales": 4986.7,
        "TotalAdultUseSales": 38878.97,
        "TotalSalesAll": 43865.67
    },
    {
        "SalesLicenseeId": "5e62e4b6-8784-4445-9f0e-636b1da85e67",
        "Licensee": "CENTRAL HIGH LLC - CENTRAL AVE RETAIL",
        "Address": "6102 Central AVE SW",
        "City": "ALBUQUERQUE",
        "State": "NM",
        "Zip": "87105",
        "Lat": "35.08076",
        "Long": "-106.70502",
        "TotalMedicalSales": 150.1,
        "TotalAdultUseSales": 293.74,
        "TotalSalesAll": 443.84
    },
    {
        "SalesLicenseeId": "21d303d0-6b2f-437f-be07-d5bedc2b160e",
        "Licensee": "CG CORRIGAN DISPENSARY - ALBUQUERQUE",
        "Address": "6614 Gulton Ct. NE",
        "City": "ALBUQUERQUE",
        "State": "NM",
        "Zip": "87109",
        "Lat": "35.15341",
        "Long": "-106.59908",
        "TotalMedicalSales": 645703.44,
        "TotalAdultUseSales": 480018.7,
        "TotalSalesAll": 1125722.14
    },
    {
        "SalesLicenseeId": "10762167-2775-4df7-821f-6061dd329ddf",
        "Licensee": "CG CORRIGAN DISPENSARY - PLACITAS",
        "Address": "30 E Frontage Road, Suite D",
        "City": "PLACITAS",
        "State": "NM",
        "Zip": "87403",
        "Lat": "34.15497",
        "Long": "-106.9164",
        "TotalMedicalSales": 299168.05,
        "TotalAdultUseSales": 183397.44,
        "TotalSalesAll": 482565.49
    },
    {
        "SalesLicenseeId": "010b7aa2-df38-4f37-8b0a-69e6f959eea5",
        "Licensee": "CHADCOR HOLDINGS NM- RETAIL",
        "Address": "1713 Juan Tabo Blvd NE",
        "City": "ALBUQUERQUE",
        "State": "NM",
        "Zip": "87112",
        "Lat": "35.10019",
        "Long": "-106.51591",
        "TotalMedicalSales": 356267.71,
        "TotalAdultUseSales": 599486.46,
        "TotalSalesAll": 955754.17
    },
    {
        "SalesLicenseeId": "27c5930a-a0f7-4101-bfd9-53eb5948206f",
        "Licensee": "CHADCOR HOLDINGS NM- RETAIL",
        "Address": " 2240 E Lohman Ave., Unit 1",
        "City": "LAS CRUCES",
        "State": "NM",
        "Zip": "88001",
        "Lat": "32.31232",
        "Long": "-106.75266",
        "TotalMedicalSales": 731476.3,
        "TotalAdultUseSales": 1356614.15,
        "TotalSalesAll": 2088090.45
    },
    {
        "SalesLicenseeId": "9be37e45-c328-4683-a6fe-da426d4e75ea",
        "Licensee": "CHADCOR HOLDINGS NM, LLC",
        "Address": "1615 Appaloosa Dr",
        "City": "SUNLAND PARK",
        "State": "NM",
        "Zip": "88063",
        "Lat": "31.80137",
        "Long": "-106.56518",
        "TotalMedicalSales": 37166.96,
        "TotalAdultUseSales": 579008.04,
        "TotalSalesAll": 616175
    },
    {
        "SalesLicenseeId": "73895af6-dba3-4fae-bbbf-a3000f790c0e",
        "Licensee": "CHEEKS  WEEZY LLC",
        "Address": "6300 Montano Rd NW",
        "City": "ALBUQUERQUE",
        "State": "NM",
        "Zip": "87120",
        "Lat": "35.15235",
        "Long": "-106.71284",
        "TotalMedicalSales": 451.5,
        "TotalAdultUseSales": 4178.14,
        "TotalSalesAll": 4629.64
    },
    {
        "SalesLicenseeId": "5e3e84e4-330a-4564-b67e-c71651992165",
        "Licensee": "CHILLAX GLASS - SUDDERTH RD RETAIL",
        "Address": "200 Sudderth Rd Unit A  B",
        "City": "RUIDOSO",
        "State": "NM",
        "Zip": "88345",
        "Lat": "33.32325",
        "Long": "-105.63107",
        "TotalMedicalSales": 116866.18,
        "TotalAdultUseSales": 344471,
        "TotalSalesAll": 461337.18
    },
    {
        "SalesLicenseeId": "02a0b7be-c591-4607-972e-a72b778f7643",
        "Licensee": "CHRONIC KINGS LLC - LOMAS BLVD RETAIL",
        "Address": "400 Lomas Blvd NE",
        "City": "ALBUQUERQUE",
        "State": "NM",
        "Zip": "87102",
        "Lat": "35.09048",
        "Long": "-106.6454",
        "TotalMedicalSales": 139509.96,
        "TotalAdultUseSales": 760043.21,
        "TotalSalesAll": 899553.19
    },
    {
        "SalesLicenseeId": "0e6d471c-1e97-4a4d-99ba-f3511f8d1333",
        "Licensee": "CINDER NEW MEXICO LLC - 3RD ST ABQ RETAIL",
        "Address": "800 3rd St NW",
        "City": "ALBUQUERQUE",
        "State": "NM",
        "Zip": "87102",
        "Lat": "35.0921",
        "Long": "-106.64881",
        "TotalMedicalSales": 135401.39,
        "TotalAdultUseSales": 494097.5,
        "TotalSalesAll": 629498.89
    },
    {
        "SalesLicenseeId": "0d156772-9a75-44f2-a659-dfd3be005ed0",
        "Licensee": "CLOUD 9 ZENDUSTRIES",
        "Address": "5200 Constitution Avenue NE",
        "City": "ALBUQUERQUE",
        "State": "NM",
        "Zip": "87110",
        "Lat": "35.09444",
        "Long": "-106.58731",
        "TotalMedicalSales": 9339.76,
        "TotalAdultUseSales": 68900.48,
        "TotalSalesAll": 78240.24
    },
    {
        "SalesLicenseeId": "c79ea401-d382-41b9-a563-52f1245869f9",
        "Licensee": "CLOUD HOUSE, LLC - HADLEY RETAIL",
        "Address": "1730 W Hadley Ave",
        "City": "LAS CRUCES",
        "State": "NM",
        "Zip": "88005",
        "Lat": "32.30933",
        "Long": "-106.80133",
        "TotalMedicalSales": 118,
        "TotalAdultUseSales": 488.9,
        "TotalSalesAll": 606.9
    },
    {
        "SalesLicenseeId": "01e8e862-f487-4478-af81-0540b1e0e372",
        "Licensee": "CMC CANNABIS DISPENSARY LLC/ RETAIL W HISTORIC HWY 66",
        "Address": "611 W Historic HWY 66",
        "City": "GALLUP",
        "State": "NM",
        "Zip": "87301",
        "Lat": "35.52608",
        "Long": "-108.74848",
        "TotalMedicalSales": 41126.18,
        "TotalAdultUseSales": 298748.67,
        "TotalSalesAll": 339874.84
    },
    {
        "SalesLicenseeId": "00af8b9f-2e94-450b-8db1-8dc6d0519fa5",
        "Licensee": "COMPASSIONATE DISTRIBUTORS ALAMOGORDO",
        "Address": "2617 N. White Sands Blvd. Ste. D",
        "City": "ALAMOGORDO",
        "State": "NM",
        "Zip": "88310",
        "Lat": "32.92334",
        "Long": "-105.96109",
        "TotalMedicalSales": 528854.06,
        "TotalAdultUseSales": 516537.57,
        "TotalSalesAll": 1045391.63
    },
    {
        "SalesLicenseeId": "03b3eebb-c2c4-4c65-9a25-2737b4a044a3",
        "Licensee": "COMPASSIONATE DISTRIBUTORS DISPENSARY - ROSWELL",
        "Address": "117 West Walnut",
        "City": "ROSWELL",
        "State": "NM",
        "Zip": "88203",
        "Lat": "33.39214",
        "Long": "-104.52373",
        "TotalMedicalSales": 481760.15,
        "TotalAdultUseSales": 494019.6,
        "TotalSalesAll": 975779.74
    },
    {
        "SalesLicenseeId": "0356f844-66cf-4769-b834-f1a17c9e8e10",
        "Licensee": "COMPASSIONATE DISTRIBUTORS DISPENSARY - RUIDOSO",
        "Address": "1100 Sudderth Dr.",
        "City": "RUIDOSO",
        "State": "NM",
        "Zip": "88345",
        "Lat": "33.3255",
        "Long": "-105.65858",
        "TotalMedicalSales": 401307.55,
        "TotalAdultUseSales": 594739.19,
        "TotalSalesAll": 996046.74
    },
    {
        "SalesLicenseeId": "2c1470d4-1068-4c21-aa16-be83d76b9e24",
        "Licensee": "COMPASSIONATE DISTRIBUTORS DISPENSARY - RUIDOSO",
        "Address": "1216 Mechem Dr.",
        "City": "RUIDOSO",
        "State": "NM",
        "Zip": "88345",
        "Lat": "33.342463",
        "Long": "-105.674117",
        "TotalMedicalSales": 50224.21,
        "TotalAdultUseSales": 712,
        "TotalSalesAll": 50936.21
    },
    {
        "SalesLicenseeId": "0141dc26-f2ab-466a-96ab-408f886cf381",
        "Licensee": "COMPASSIONATE DISTRIBUTORS DISPENSARY-CARLSBAD",
        "Address": "1704 S. Canal Street",
        "City": "CARLSBAD",
        "State": "NM",
        "Zip": "88220",
        "Lat": "32.38989",
        "Long": "-104.218898",
        "TotalMedicalSales": 402306.6,
        "TotalAdultUseSales": 899619.85,
        "TotalSalesAll": 1301926.45
    },
    {
        "SalesLicenseeId": "102c1643-ad81-4696-b666-4eaf81543d8f",
        "Licensee": "COMPASSIONATE DISTRIBUTORS HOBBS",
        "Address": "1822 S. Dal Paso",
        "City": "HOBBS",
        "State": "NM",
        "Zip": "88240",
        "Lat": "32.6824",
        "Long": "-103.1269",
        "TotalMedicalSales": 182841.23,
        "TotalAdultUseSales": 1424666.77,
        "TotalSalesAll": 1607508
    },
    {
        "SalesLicenseeId": "0732f597-4264-4ed2-afa2-c00947115fb3",
        "Licensee": "COMPASSIONATE DISTRIBUTORS INC",
        "Address": "1321 N Pile St",
        "City": "CLOVIS",
        "State": "NM",
        "Zip": "88101",
        "Lat": "34.419312",
        "Long": "-103.20401",
        "TotalMedicalSales": 281669.12,
        "TotalAdultUseSales": 329128.07,
        "TotalSalesAll": 610797.19
    },
    {
        "SalesLicenseeId": "fd5e2bbd-49e4-4cd7-9053-22d8d3ee353c",
        "Licensee": "COMPASSIONATE DISTRIBUTORS INCORPORATED",
        "Address": "1925 Appaloosa Ste 4-5",
        "City": "SUNLAND PARK",
        "State": "NM",
        "Zip": "88063",
        "Lat": "31.796496",
        "Long": "-106.579989",
        "TotalMedicalSales": 1202,
        "TotalAdultUseSales": 0,
        "TotalSalesAll": 1202
    },
    {
        "SalesLicenseeId": "1420f5f7-95ab-4659-8a31-28b07764ce66",
        "Licensee": "COMPASSIONATE DISTRIBUTORS INCORPORATED",
        "Address": "401 Anthony Dr",
        "City": "ANTHONY",
        "State": "NM",
        "Zip": "88021",
        "Lat": "32.00367",
        "Long": "-106.60652",
        "TotalMedicalSales": 74682.49,
        "TotalAdultUseSales": 254839.48,
        "TotalSalesAll": 329521.98
    },
    {
        "SalesLicenseeId": "0723f9a6-6df5-4f74-a472-b08956c638e8",
        "Licensee": "COMPASSIONATE DISTRIBUTORS INCORPORATED",
        "Address": "338 Paseo Del Pueblo Sur Unit 2",
        "City": "TAOS",
        "State": "NM",
        "Zip": "87571",
        "Lat": "36.39995",
        "Long": "-105.57691",
        "TotalMedicalSales": 110222.54,
        "TotalAdultUseSales": 235400.92,
        "TotalSalesAll": 345623.46
    },
    {
        "SalesLicenseeId": "1e8ab27c-9d26-48fe-ac68-59eca0d1929d",
        "Licensee": "COMPASSIONATE DISTRIBUTORS INCORPORATED - DON DIEGO RETAIL",
        "Address": "713 Don Diego Ave",
        "City": "SANTA FE",
        "State": "NM",
        "Zip": "87505",
        "Lat": "35.67996",
        "Long": "-105.94762",
        "TotalMedicalSales": 89241.97,
        "TotalAdultUseSales": 166340.73,
        "TotalSalesAll": 255582.7
    },
    {
        "SalesLicenseeId": "2752fc90-8008-491c-b5e5-602f90c5eb9e",
        "Licensee": "COMPASSIONATE DISTRIBUTORS INCORPORATED/ RETAIL 2ND STREET NW",
        "Address": "1100 2nd Street NW",
        "City": "ALBUQUERQUE",
        "State": "NM",
        "Zip": "87102",
        "Lat": "35.09385",
        "Long": "-106.64729",
        "TotalMedicalSales": 23105.75,
        "TotalAdultUseSales": 34526.45,
        "TotalSalesAll": 57632.2
    },
    {
        "SalesLicenseeId": "0d29ff84-8e8c-4b1a-a1d7-b278cec5290d",
        "Licensee": "COMPASSIONATE DISTRIBUTORS INCORPORATED/ RETAIL LOMAS BLVD NW",
        "Address": "1520 Lomas Blvd NW",
        "City": "ALBUQUERQUE",
        "State": "NM",
        "Zip": "87102",
        "Lat": "35.09052",
        "Long": "-106.62624",
        "TotalMedicalSales": 8504.6,
        "TotalAdultUseSales": 14008.19,
        "TotalSalesAll": 22512.79
    },
    {
        "SalesLicenseeId": "28c8ed93-4f02-43fa-9e68-ecaf23b6d98d",
        "Licensee": "COMPASSIONATE DISTRIBUTORS LAS CRUCES",
        "Address": "609 E Amador Ave",
        "City": "LAS CRUCES",
        "State": "NM",
        "Zip": "88011",
        "Lat": "32.30852",
        "Long": "-106.77193",
        "TotalMedicalSales": 412097.28,
        "TotalAdultUseSales": 404057.17,
        "TotalSalesAll": 816154.45
    },
    {
        "SalesLicenseeId": "7543d27f-dafc-4094-b038-ffcc30b092a8",
        "Licensee": "COMPASSIONATE DISTRIBUTORS OSO CANNABIS RETAIL",
        "Address": "17839-A US 84/285",
        "City": "SANTA FE",
        "State": "NM",
        "Zip": "87056",
        "Lat": "35.86753",
        "Long": "-106.00331",
        "TotalMedicalSales": 120,
        "TotalAdultUseSales": 0,
        "TotalSalesAll": 120
    },
    {
        "SalesLicenseeId": "09648217-e47d-4dbf-bad1-7d61c5568917",
        "Licensee": "COMPASSIONATE DISTRIBUTORS PORTALES",
        "Address": "1429 S. Avenue D",
        "City": "PORTALES",
        "State": "NM",
        "Zip": "88130",
        "Lat": "34.17623",
        "Long": "-103.33456",
        "TotalMedicalSales": 286725.73,
        "TotalAdultUseSales": 246201.29,
        "TotalSalesAll": 532927.02
    },
    {
        "SalesLicenseeId": "16d4d5c5-57ed-431f-9a53-ed6e669fcf51",
        "Licensee": "CORRALES HEMPORIUM LLC/ RETAIL CORRALES ROAD",
        "Address": "4484 Corrales Road",
        "City": "CORRALES",
        "State": "NM",
        "Zip": "87048",
        "Lat": "35.22469",
        "Long": "-106.61432",
        "TotalMedicalSales": 8087.27,
        "TotalAdultUseSales": 18293.69,
        "TotalSalesAll": 26380.96
    },
    {
        "SalesLicenseeId": "05b5eb35-d6f4-45d1-8bfc-a42a54f7e106",
        "Licensee": "COWBOY VERDE LLC - MABRY DR, CLOVIS RETAIL",
        "Address": "1605 Mabry Dr",
        "City": "CLOVIS",
        "State": "NM",
        "Zip": "88101",
        "Lat": "34.395166",
        "Long": "-103.160806",
        "TotalMedicalSales": 127155.69,
        "TotalAdultUseSales": 1193388.51,
        "TotalSalesAll": 1320544.22
    },
    {
        "SalesLicenseeId": "208d16ff-0823-4489-99d2-a94196c5626f",
        "Licensee": "COWBOY VERDE LLC/ RETAIL S MAIN",
        "Address": "211 S Main",
        "City": "BELEN",
        "State": "NM",
        "Zip": "87002",
        "Lat": "34.6596",
        "Long": "-106.77777",
        "TotalMedicalSales": 42761.94,
        "TotalAdultUseSales": 134151.77,
        "TotalSalesAll": 176913.7
    },
    {
        "SalesLicenseeId": "0fae36c7-6b41-47f5-b0a3-a1cfdd8946d7",
        "Licensee": "COWBOY VERDE LLC/ RETAIL US-54",
        "Address": "124 US-54",
        "City": "LOGAN",
        "State": "NM",
        "Zip": "88426",
        "Lat": "35.373634",
        "Long": "-103.406929",
        "TotalMedicalSales": 11465.97,
        "TotalAdultUseSales": 48016.44,
        "TotalSalesAll": 59482.41
    },
    {
        "SalesLicenseeId": "1d42710a-2ab1-4ef9-9f1f-5b4c9c4b6f92",
        "Licensee": "CRANIUM EXTRACTS LLC",
        "Address": "4501 4th Street NW, Suite E",
        "City": "ALBUQUERQUE",
        "State": "NM",
        "Zip": "87107",
        "Lat": "35.12859",
        "Long": "-106.64359",
        "TotalMedicalSales": 71856.57,
        "TotalAdultUseSales": 164375.54,
        "TotalSalesAll": 236232.11
    },
    {
        "SalesLicenseeId": "67dce53b-d0e3-4798-a051-e966ba6e03bd",
        "Licensee": "CUCHILLO GREENS1 LLC",
        "Address": "60 Willow Springs Rd",
        "City": "TRUTH OR CONSEQUENCES",
        "State": "NM",
        "Zip": "87901",
        "Lat": "33.27792",
        "Long": "-107.18485",
        "TotalMedicalSales": 6630.63,
        "TotalAdultUseSales": 11836.24,
        "TotalSalesAll": 18466.87
    },
    {
        "SalesLicenseeId": "01da6b88-84bc-4d1c-96fa-ddecebdb5d66",
        "Licensee": "CUCHILLO GREENS1 LLC",
        "Address": "280 N Date Street BLDG C",
        "City": "TRUTH OR CONSEQUENCES",
        "State": "NM",
        "Zip": "87901",
        "Lat": "33.13296",
        "Long": "-107.25067",
        "TotalMedicalSales": 50832.35,
        "TotalAdultUseSales": 111498.37,
        "TotalSalesAll": 162330.72
    },
    {
        "SalesLicenseeId": "14227e02-d9fb-4841-966f-c41e8295ea21",
        "Licensee": "D AND S ENTERPRISES- CARASCO RETAIL-001",
        "Address": "512 Carasco",
        "City": "HURLEY",
        "State": "NM",
        "Zip": "88043",
        "Lat": "32.69692",
        "Long": "-108.13226",
        "TotalMedicalSales": 6033.1,
        "TotalAdultUseSales": 13856.7,
        "TotalSalesAll": 19889.8
    },
    {
        "SalesLicenseeId": "2d5aaa3f-9aac-4eca-b764-7f079416ddf0",
        "Licensee": "D GRASS STATION NM LLC/ RETAIL MCNUTT RD",
        "Address": "1207 McNutt RD",
        "City": "SUNLAND PARK",
        "State": "NM",
        "Zip": "88063",
        "Lat": "31.79454",
        "Long": "-106.55981",
        "TotalMedicalSales": 172,
        "TotalAdultUseSales": 15232.52,
        "TotalSalesAll": 15404.52
    },
    {
        "SalesLicenseeId": "3f5ca795-6624-438d-97dc-29e0eb1050ae",
        "Licensee": "DBGJR LLC - WEST LAST RD RETAIL",
        "Address": "109 West Last Rd",
        "City": "CAPITAN",
        "State": "NM",
        "Zip": "88316",
        "Lat": "33.54547",
        "Long": "-105.59293",
        "TotalMedicalSales": 2610.64,
        "TotalAdultUseSales": 4320.43,
        "TotalSalesAll": 6931.07
    },
    {
        "SalesLicenseeId": "76647cbb-55bf-4635-8661-3165b0a8067f",
        "Licensee": "DEEP SKY CANNABIS LLC - GALISTEO ST RETAIL",
        "Address": "300 Galisteo St Unit 105",
        "City": "SANTA FE",
        "State": "NM",
        "Zip": "87501",
        "Lat": "35.68525",
        "Long": "-105.94198",
        "TotalMedicalSales": 15571.84,
        "TotalAdultUseSales": 37542.14,
        "TotalSalesAll": 53113.98
    },
    {
        "SalesLicenseeId": "0652f6e5-26c0-4d45-96ad-cc930f4327b4",
        "Licensee": "DEEP SKY CANNABIS LLC - LUANA ST RETAIL",
        "Address": "1320 Luana St",
        "City": "SANTA FE",
        "State": "NM",
        "Zip": "87505",
        "Lat": "35.661898",
        "Long": "-105.983216",
        "TotalMedicalSales": 357687.42,
        "TotalAdultUseSales": 801750.45,
        "TotalSalesAll": 1159437.85
    },
    {
        "SalesLicenseeId": "20afd7ab-5c64-4045-99c7-70db26eb34b9",
        "Licensee": "DEMING CANNABIS COMPANY LLC - SPRUCE ST RETAIL",
        "Address": "1113 W Spruce St",
        "City": "DEMING",
        "State": "NM",
        "Zip": "88030",
        "Lat": "32.26651",
        "Long": "-107.77133",
        "TotalMedicalSales": 233526,
        "TotalAdultUseSales": 609292.99,
        "TotalSalesAll": 842818.99
    },
    {
        "SalesLicenseeId": "4530efe3-de3d-40e2-a7a8-076fc7f43577",
        "Licensee": "DEMING GANJA LOUNGE LLC/ RETAIL NORTH 8TH STREET SUITE B",
        "Address": "119 North 8th Street Suite B",
        "City": "DEMING",
        "State": "NM",
        "Zip": "88030",
        "Lat": "32.26851",
        "Long": "-107.76852",
        "TotalMedicalSales": 39991.74,
        "TotalAdultUseSales": 67680.42,
        "TotalSalesAll": 107672.16
    },
    {
        "SalesLicenseeId": "0944fa01-b236-4f66-a750-e4465b43fe8f",
        "Licensee": "DESERT FLOWER LLC - AZTEC RD RETAIL",
        "Address": "1308 W Aztec Blvd",
        "City": "AZTEC",
        "State": "NM",
        "Zip": "87410",
        "Lat": "36.82656",
        "Long": "-108.00874",
        "TotalMedicalSales": 0,
        "TotalAdultUseSales": 95429.4,
        "TotalSalesAll": 95429.4
    },
    {
        "SalesLicenseeId": "12b02d1f-a42e-4709-977a-4fef53d361b2",
        "Licensee": "DISPENSARY NEAR ME/ RETAIL NM47",
        "Address": "2384 NM 47",
        "City": "BELEN",
        "State": "NM",
        "Zip": "87002",
        "Lat": "34.66075",
        "Long": "-106.73686",
        "TotalMedicalSales": 195159.48,
        "TotalAdultUseSales": 454289.64,
        "TotalSalesAll": 649449.12
    },
    {
        "SalesLicenseeId": "053d3313-14b8-42ac-9de2-2369b4b9b8bf",
        "Licensee": "DISTINGUISHED DISPENSARY LLC - ENGLISH RD RETAIL",
        "Address": "4601 English Rd",
        "City": "FARMINGTON",
        "State": "NM",
        "Zip": "87402",
        "Lat": "36.77012",
        "Long": "-108.14932",
        "TotalMedicalSales": 48967.17,
        "TotalAdultUseSales": 760737.37,
        "TotalSalesAll": 809704.54
    },
    {
        "SalesLicenseeId": "02162e87-d433-4f74-98b1-611c7ad3e0e5",
        "Licensee": "DOWNTOWN DISPENSARY TUCUMCARI",
        "Address": "113 S 2nd St",
        "City": "TUCUMCARI",
        "State": "NM",
        "Zip": "88401",
        "Lat": "35.17855",
        "Long": "-103.72632",
        "TotalMedicalSales": 116595.07,
        "TotalAdultUseSales": 496044.97,
        "TotalSalesAll": 612640.04
    },
    {
        "SalesLicenseeId": "6e545163-ad89-49d2-b88b-ead31ef4217e",
        "Licensee": "DR GREEN ORGANICS - MAIN ST RETAIL",
        "Address": "5555 S Main St",
        "City": "MESILLA PARK",
        "State": "NM",
        "Zip": "88047",
        "Lat": "32.2447",
        "Long": "-106.74606",
        "TotalMedicalSales": 4918.48,
        "TotalAdultUseSales": 11279.44,
        "TotalSalesAll": 16197.92
    },
    {
        "SalesLicenseeId": "7f13d876-b8b1-4484-b8b0-0adc3ce540e2",
        "Licensee": "DR. VS MOUNTAIN MEDS LLC.",
        "Address": "176502 NM-4",
        "City": "JEMEZ SPRINGS",
        "State": "NM",
        "Zip": "87025",
        "Lat": "35.76408",
        "Long": "-106.69555",
        "TotalMedicalSales": 10254.3,
        "TotalAdultUseSales": 34243.35,
        "TotalSalesAll": 44497.65
    },
    {
        "SalesLicenseeId": "2d9ba07d-1f31-494f-a80a-defabcab0d74",
        "Licensee": "DUKE CITY HERBS - CENTRAL AVE RETAIL",
        "Address": "4012 Central Ave SE",
        "City": "ALBUQUERQUE",
        "State": "NM",
        "Zip": "87108",
        "Lat": "35.07902",
        "Long": "-106.59929",
        "TotalMedicalSales": 25,
        "TotalAdultUseSales": 928.53,
        "TotalSalesAll": 953.53
    },
    {
        "SalesLicenseeId": "0497c33b-2c30-46b4-82fe-77844a7c5506",
        "Licensee": "DULCE CANNABIS",
        "Address": "2000 Carlisle Blvd NE Suite B",
        "City": "ALBUQUERQUE",
        "State": "NM",
        "Zip": "87110",
        "Lat": "35.10123",
        "Long": "-106.60386",
        "TotalMedicalSales": 141501.9,
        "TotalAdultUseSales": 515162.23,
        "TotalSalesAll": 656664.13
    },
    {
        "SalesLicenseeId": "b5c549c1-73ec-4bcd-afa8-56780e579462",
        "Licensee": "EARL AND TOM LLC - MAIN ST PRODUCER",
        "Address": "106 S Main Street",
        "City": "CLOVIS",
        "State": "NM",
        "Zip": "88101",
        "Lat": "34.3983",
        "Long": "-103.20553",
        "TotalMedicalSales": 97.75,
        "TotalAdultUseSales": 0,
        "TotalSalesAll": 97.75
    },
    {
        "SalesLicenseeId": "1015bb52-52bf-4cf0-9f6a-d4ba0b565bed",
        "Licensee": "EARL AND TOM LLC - MAIN ST, CLOVIS RETAIL",
        "Address": "106 S Main St",
        "City": "CLOVIS",
        "State": "NM",
        "Zip": "88101",
        "Lat": "34.382582",
        "Long": "-103.205293",
        "TotalMedicalSales": 389607.2,
        "TotalAdultUseSales": 1310740.38,
        "TotalSalesAll": 1700347.6
    },
    {
        "SalesLicenseeId": "2125c6e4-fdd7-423e-9952-5a358ea2a2bf",
        "Licensee": "ELEMENTS DISPENSARY LLC/ RETAIL LOMAS BLVD NE",
        "Address": "9901 Lomas Blvd NE",
        "City": "ALBUQUERQUE",
        "State": "NM",
        "Zip": "87112",
        "Lat": "35.0876",
        "Long": "-106.53661",
        "TotalMedicalSales": 67165.23,
        "TotalAdultUseSales": 160085.85,
        "TotalSalesAll": 227251.08
    },
    {
        "SalesLicenseeId": "1a1dcd33-1999-4711-87e8-7baebd23e717",
        "Licensee": "ELEVATION 6420 LLC - MECHEM DR - RETAIL",
        "Address": "101 Mechem Dr",
        "City": "RUIDOSO",
        "State": "NM",
        "Zip": "88345",
        "Lat": "33.33461",
        "Long": "-105.68155",
        "TotalMedicalSales": 562191.98,
        "TotalAdultUseSales": 1589985.61,
        "TotalSalesAll": 2152177.56
    },
    {
        "SalesLicenseeId": "6858c83e-e03f-4ae5-816e-1fc79bc77f87",
        "Licensee": "ELEVATION 6420 LLC - SUDDERTH DR - RETAIL",
        "Address": "2553 Sudderth Dr",
        "City": "RUIDOSO",
        "State": "NM",
        "Zip": "88345",
        "Lat": "33.328558",
        "Long": "-105.663388",
        "TotalMedicalSales": 19147.86,
        "TotalAdultUseSales": 105637.81,
        "TotalSalesAll": 124785.67
    },
    {
        "SalesLicenseeId": "57256d76-9dbc-46ef-9a70-b436a7ba538e",
        "Licensee": "ELEVATION 6420 LLC - WHITE SANDS BLVD RETAIL",
        "Address": "423 S White Sands Blvd Ste B",
        "City": "ALAMOGORDO",
        "State": "NM",
        "Zip": "88310",
        "Lat": "32.88589",
        "Long": "-105.9598",
        "TotalMedicalSales": 68228.51,
        "TotalAdultUseSales": 93518.16,
        "TotalSalesAll": 161746.67
    },
    {
        "SalesLicenseeId": "3600da73-e3a5-47d6-80bf-bd8fd20ac04f",
        "Licensee": "ELEVATION 6969 LLC/ RETAIL BENDIX ST UNIT E",
        "Address": "212 Bendix St Unit E",
        "City": "TAOS",
        "State": "NM",
        "Zip": "87571",
        "Lat": "36.38431",
        "Long": "-105.5997",
        "TotalMedicalSales": 7417.01,
        "TotalAdultUseSales": 16456.04,
        "TotalSalesAll": 23873.05
    },
    {
        "SalesLicenseeId": "74011255-d605-409c-9795-c2f20d4a81b4",
        "Licensee": "ELKHORN RETAIL LLC - 1205 RIVERSIDE RETAIL",
        "Address": "1205 N Riverside Dr",
        "City": "ESPANOLA",
        "State": "NM",
        "Zip": "87532",
        "Lat": "36.00833",
        "Long": "-106.06463",
        "TotalMedicalSales": 46221.38,
        "TotalAdultUseSales": 73893.63,
        "TotalSalesAll": 120115.01
    },
    {
        "SalesLicenseeId": "098ad2c6-d8d9-4d0c-bccc-0044484d6c3b",
        "Licensee": "ELKHORN RETAIL LLC/ RETAIL 98TH ST SW",
        "Address": "101 98th St SW",
        "City": "ALBUQUERQUE",
        "State": "NM",
        "Zip": "87121",
        "Lat": "35.07343",
        "Long": "-106.74322",
        "TotalMedicalSales": 375017.64,
        "TotalAdultUseSales": 635376.8,
        "TotalSalesAll": 1010394.44
    },
    {
        "SalesLicenseeId": "01ce277b-ae5a-47fe-b68d-5950b8224502",
        "Licensee": "ELKHORN RETAIL LLC/ RETAIL CERRILLOS ROAD",
        "Address": "1829 Cerrillos Road",
        "City": "SANTA FE",
        "State": "NM",
        "Zip": "87505",
        "Lat": "35.66517",
        "Long": "-105.97311",
        "TotalMedicalSales": 914372.07,
        "TotalAdultUseSales": 1209513.78,
        "TotalSalesAll": 2123885.85
    },
    {
        "SalesLicenseeId": "00fa8c92-b8ca-483a-b511-4c26a3071ac7",
        "Licensee": "ELKHORN RETAIL LLC/ RETAIL MONTGOMERY ROAD",
        "Address": "9132 Montgomery Road",
        "City": "ALBUQUERQUE",
        "State": "NM",
        "Zip": "87111",
        "Lat": "35.13036",
        "Long": "-106.54066",
        "TotalMedicalSales": 306445.36,
        "TotalAdultUseSales": 222435.32,
        "TotalSalesAll": 528880.68
    },
    {
        "SalesLicenseeId": "091cfe8a-0148-40f9-bf72-dfc463c093a2",
        "Licensee": "ELKHORN RETAIL LLC/ RETAIL N GUADALUPE",
        "Address": "604 N Guadalupe",
        "City": "SANTA FE",
        "State": "NM",
        "Zip": "87501",
        "Lat": "35.69491",
        "Long": "-105.95081",
        "TotalMedicalSales": 163591.87,
        "TotalAdultUseSales": 387492.27,
        "TotalSalesAll": 551084.14
    },
    {
        "SalesLicenseeId": "0e22815f-5d29-4a40-997d-dc78e5a4ac6a",
        "Licensee": "ELKHORN RETAIL LLC/ RETAIL OLD SANTA FE TRAIL",
        "Address": "507 Old Santa Fe Trail",
        "City": "SANTA FE",
        "State": "NM",
        "Zip": "87505",
        "Lat": "35.68108",
        "Long": "-105.93751",
        "TotalMedicalSales": 215928.01,
        "TotalAdultUseSales": 534994.02,
        "TotalSalesAll": 750922.03
    },
    {
        "SalesLicenseeId": "0558988f-8e50-419a-997f-3075a8219267",
        "Licensee": "ELKHORN RETAIL LLC/ RETAIL PASEO DEL PUEBLO SUR SUITE C",
        "Address": "925 Paseo Del Pueblo Sur Suite C",
        "City": "TAOS",
        "State": "NM",
        "Zip": "87571",
        "Lat": "36.38625",
        "Long": "-105.58473",
        "TotalMedicalSales": 127957.41,
        "TotalAdultUseSales": 353804.71,
        "TotalSalesAll": 481762.12
    },
    {
        "SalesLicenseeId": "572d30db-dfe0-44ae-b5d4-5637ba3025c2",
        "Licensee": "ELKHORN RETAIL LLC/ RETAIL PASEO DEL SUR SUITE A",
        "Address": "1033 Paseo Del Sur Suite A",
        "City": "TAOS",
        "State": "NM",
        "Zip": "87571",
        "Lat": "36.37651",
        "Long": "-105.5535",
        "TotalMedicalSales": 441726.6,
        "TotalAdultUseSales": 523677.99,
        "TotalSalesAll": 965404.59
    },
    {
        "SalesLicenseeId": "50f931ac-8b71-4447-924b-3d10fcd19bed",
        "Licensee": "ELKHORN RETAIL LLC/ RETAIL SAN PEDRO DR NE",
        "Address": "2325 San Pedro Dr NE",
        "City": "ALBUQUERQUE",
        "State": "NM",
        "Zip": "87110",
        "Lat": "35.10489",
        "Long": "-106.57799",
        "TotalMedicalSales": 286305.07,
        "TotalAdultUseSales": 288054.63,
        "TotalSalesAll": 574359.7
    },
    {
        "SalesLicenseeId": "3007f68a-fbb9-4f09-b15e-92e60a169126",
        "Licensee": "ELKHORN RETAIL LLC/ RETAIL SOUTH RIVERSIDE DRIVE",
        "Address": "423 South Riverside Drive",
        "City": "ESPANOLA",
        "State": "NM",
        "Zip": "87532",
        "Lat": "35.98869",
        "Long": "-106.06504",
        "TotalMedicalSales": 345031.49,
        "TotalAdultUseSales": 397486.81,
        "TotalSalesAll": 742518.3
    },
    {
        "SalesLicenseeId": "0cff761f-7b2b-42b2-b8c0-627249144d7e",
        "Licensee": "ENCHANTED BOTANICALS LLC - CENTRAL AVE RETAIL",
        "Address": "3417 Central Avenue NE",
        "City": "ALBUQUERQUE",
        "State": "NM",
        "Zip": "87106",
        "Lat": "35.081436",
        "Long": "-106.626727",
        "TotalMedicalSales": 215705.4,
        "TotalAdultUseSales": 379861.9,
        "TotalSalesAll": 595567.29
    },
    {
        "SalesLicenseeId": "05d0e114-f25a-43ef-b5b2-0802587e4659",
        "Licensee": "ENCHANTED BOTANICALS LLC - MENAUL BLVD RETAIL",
        "Address": "5737 Menaul Blvd NE",
        "City": "ALBUQUERQUE",
        "State": "NM",
        "Zip": "87110",
        "Lat": "35.10947",
        "Long": "-106.58005",
        "TotalMedicalSales": 683880.57,
        "TotalAdultUseSales": 1292729.72,
        "TotalSalesAll": 1976610.23
    },
    {
        "SalesLicenseeId": "63eeb502-36cf-4e65-a3ef-84df9feb6f49",
        "Licensee": "ENCHANTED DESERT FARMS LLC",
        "Address": "42417 Highway 70 Suite 420",
        "City": "PORTALES",
        "State": "NM",
        "Zip": "88130",
        "Lat": "34.19639",
        "Long": "-103.326",
        "TotalMedicalSales": 65652.58,
        "TotalAdultUseSales": 27043.87,
        "TotalSalesAll": 92696.46
    },
    {
        "SalesLicenseeId": "0156f05a-092c-4f17-99fb-9824217e100c",
        "Licensee": "ENCHANTED LIFE NM - LOUISIANA RETAIL",
        "Address": "400 Louisiana SE",
        "City": "ALBUQUERQUE",
        "State": "NM",
        "Zip": "87108",
        "Lat": "35.072436",
        "Long": "-106.568382",
        "TotalMedicalSales": 89293.19,
        "TotalAdultUseSales": 178345.37,
        "TotalSalesAll": 267638.55
    },
    {
        "SalesLicenseeId": "02ebcc0a-7276-46e8-b917-258f4af34c86",
        "Licensee": "ENCHANTED STRAINS LLC - 7TH ST RETAIL",
        "Address": "2300 7th St",
        "City": "CLOVIS",
        "State": "NM",
        "Zip": "88101",
        "Lat": "34.40511",
        "Long": "-103.17788",
        "TotalMedicalSales": 113089.84,
        "TotalAdultUseSales": 434653.84,
        "TotalSalesAll": 547743.68
    },
    {
        "SalesLicenseeId": "2625be08-17e3-4d3a-b17d-a5ab90fbb3a8",
        "Licensee": "ENCHANTMENT GROWTH CO",
        "Address": "1002 W Pierce",
        "City": "CARLSBAD",
        "State": "NM",
        "Zip": "88220",
        "Lat": "32.43584",
        "Long": "-104.23767",
        "TotalMedicalSales": 99106.18,
        "TotalAdultUseSales": 390907.68,
        "TotalSalesAll": 490013.86
    },
    {
        "SalesLicenseeId": "24af553e-38a6-41bf-9ab0-0c0ee8b94977",
        "Licensee": "ENCHANTMENT GROWTH CO",
        "Address": "714 S Commerce",
        "City": "JAL",
        "State": "NM",
        "Zip": "88252",
        "Lat": "32.10476",
        "Long": "-103.18786",
        "TotalMedicalSales": 6250.86,
        "TotalAdultUseSales": 70345.88,
        "TotalSalesAll": 76596.74
    },
    {
        "SalesLicenseeId": "5bd850af-96d7-43b5-8b51-60ecbecba871",
        "Licensee": "ENCHANTMENT GROWTH CO",
        "Address": "1912 N Grimes",
        "City": "HOBBS",
        "State": "NM",
        "Zip": "88240",
        "Lat": "32.72014",
        "Long": "-103.14454",
        "TotalMedicalSales": 312255.58,
        "TotalAdultUseSales": 1867829,
        "TotalSalesAll": 2180084.58
    },
    {
        "SalesLicenseeId": "17209772-ef4e-493b-8db1-02c9f46a4891",
        "Licensee": "ENDO LLC - RETAIL",
        "Address": "2903 Agua Fria St",
        "City": "SANTA FE",
        "State": "NM",
        "Zip": "87507",
        "Lat": "35.66348",
        "Long": "-105.99777",
        "TotalMedicalSales": 421138.72,
        "TotalAdultUseSales": 840504.39,
        "TotalSalesAll": 1261643.11
    },
    {
        "SalesLicenseeId": "9b47b6f5-01bd-46c2-a15c-273539051d59",
        "Licensee": "ERB HOLDINGS/ RETAIL OHARA ROAD",
        "Address": "1400 Ohara Road",
        "City": "ANTHONY",
        "State": "NM",
        "Zip": "88021",
        "Lat": "32.02422",
        "Long": "-106.59643",
        "TotalMedicalSales": 1097.31,
        "TotalAdultUseSales": 12194.43,
        "TotalSalesAll": 13291.74
    },
    {
        "SalesLicenseeId": "2aa13468-e085-4705-9bab-5e043c236009",
        "Licensee": "ES HOLDINGS LLC - CENTRAL RETAIL",
        "Address": "8508 Central Ave SE",
        "City": "ALBUQUERQUE",
        "State": "NM",
        "Zip": "87108",
        "Lat": "35.07369",
        "Long": "-106.55229",
        "TotalMedicalSales": 201563.28,
        "TotalAdultUseSales": 390395.51,
        "TotalSalesAll": 591958.79
    },
    {
        "SalesLicenseeId": "3b8405bd-0b4a-41a7-b550-83589060a230",
        "Licensee": "EVEREST APOTHECARY",
        "Address": "202 N State St",
        "City": "TEXICO",
        "State": "NM",
        "Zip": "88135",
        "Lat": "34.39003",
        "Long": "-103.04489",
        "TotalMedicalSales": 38850.54,
        "TotalAdultUseSales": 237175.27,
        "TotalSalesAll": 276025.81
    },
    {
        "SalesLicenseeId": "079cfc5d-6cb7-46b7-99ac-16b4edbd3a75",
        "Licensee": "EVEREST APOTHECARY",
        "Address": "1240 S Valley Dr Ste D",
        "City": "LAS CRUCES",
        "State": "NM",
        "Zip": "88005",
        "Lat": "32.29426",
        "Long": "-106.78681",
        "TotalMedicalSales": 306303.09,
        "TotalAdultUseSales": 715126.66,
        "TotalSalesAll": 1021429.75
    },
    {
        "SalesLicenseeId": "29300100-f055-4512-aee9-3e2290c1e4aa",
        "Licensee": "EVEREST APOTHECARY",
        "Address": "201 State St",
        "City": "TEXICO",
        "State": "NM",
        "Zip": "88135",
        "Lat": "34.39042",
        "Long": "-103.04434",
        "TotalMedicalSales": 6648.45,
        "TotalAdultUseSales": 39815.29,
        "TotalSalesAll": 46463.74
    },
    {
        "SalesLicenseeId": "21fc12b8-91bd-42d4-8454-a77af0b70aae",
        "Licensee": "EVEREST APOTHECARY",
        "Address": "3963 Cerrillos Rd Ste B",
        "City": "SANTA FE",
        "State": "NM",
        "Zip": "87507",
        "Lat": "35.620423",
        "Long": "-106.028899",
        "TotalMedicalSales": 375934.86,
        "TotalAdultUseSales": 1148533.86,
        "TotalSalesAll": 1524468.72
    },
    {
        "SalesLicenseeId": "06ba1a00-21b6-4657-b5c1-31485988f3f0",
        "Licensee": "EVEREST APOTHECARY",
        "Address": "1580 Appaloosa Dr Ste 320",
        "City": "SUNLAND PARK",
        "State": "NM",
        "Zip": "88063",
        "Lat": "31.796496",
        "Long": "-106.579989",
        "TotalMedicalSales": 257637.87,
        "TotalAdultUseSales": 4302300.96,
        "TotalSalesAll": 4559938.83
    },
    {
        "SalesLicenseeId": "0123ff3f-d6f9-4369-a406-f9e98bf03283",
        "Licensee": "EVEREST APOTHECARY",
        "Address": "6010 Coors Blvd Ste 3",
        "City": "ALBUQUERQUE",
        "State": "NM",
        "Zip": "87120",
        "Lat": "35.15015",
        "Long": "-106.68504",
        "TotalMedicalSales": 554939.26,
        "TotalAdultUseSales": 1459871.42,
        "TotalSalesAll": 2014810.68
    },
    {
        "SalesLicenseeId": "06166a81-4a17-4c92-865f-b17299d122e8",
        "Licensee": "EVEREST APOTHECARY - ALBUQUERQUE DISPENSARY",
        "Address": "10660 Unser Blvd., NW",
        "City": "ALBUQUERQUE",
        "State": "NM",
        "Zip": "87114",
        "Lat": "35.076944",
        "Long": "-106.722994",
        "TotalMedicalSales": 1090261.84,
        "TotalAdultUseSales": 2054408.99,
        "TotalSalesAll": 3144670.83
    },
    {
        "SalesLicenseeId": "02949bad-cb6d-4e9b-aa9b-ee69caf8fbda",
        "Licensee": "EVEREST APOTHECARY - DISPENSARY",
        "Address": "9237 4th St. NW",
        "City": "ALBUQUERQUE",
        "State": "NM",
        "Zip": "87114",
        "Lat": "35.13928",
        "Long": "-106.641083",
        "TotalMedicalSales": 791698.61,
        "TotalAdultUseSales": 1339955.35,
        "TotalSalesAll": 2131653.96
    },
    {
        "SalesLicenseeId": "10fc9782-1296-45b6-b61f-57a34fa0e819",
        "Licensee": "EVEREST APOTHECARY - LAS CRUCES DISPENSARY",
        "Address": "3841 East Lohman Ave",
        "City": "LAS CRUCES",
        "State": "NM",
        "Zip": "88011",
        "Lat": "32.31916",
        "Long": "-106.7358",
        "TotalMedicalSales": 818095.37,
        "TotalAdultUseSales": 1738167.64,
        "TotalSalesAll": 2556263.01
    },
    {
        "SalesLicenseeId": "0b8cc556-e082-46a5-98d7-bfdf74eb0319",
        "Licensee": "EVEREST APOTHECARY - LOS LUNAS DISPENSARY",
        "Address": "1651 Main Street, Suite E",
        "City": "LOS LUNAS",
        "State": "NM",
        "Zip": "87031",
        "Lat": "34.81342",
        "Long": "-106.75385",
        "TotalMedicalSales": 993195.16,
        "TotalAdultUseSales": 1700420.12,
        "TotalSalesAll": 2693615.28
    },
    {
        "SalesLicenseeId": "04c179ee-d033-4a13-b824-7ba5167814fb",
        "Licensee": "EVEREST APOTHECARY - RETAIL",
        "Address": "5809 Juan Tabo",
        "City": "ALBUQUERQUE",
        "State": "NM",
        "Zip": "87111",
        "Lat": "35.136266",
        "Long": "-106.515627",
        "TotalMedicalSales": 766421.09,
        "TotalAdultUseSales": 1479478.45,
        "TotalSalesAll": 2245899.54
    },
    {
        "SalesLicenseeId": "0e088b31-e1ab-4cd2-98d8-7ceecf5b73e0",
        "Licensee": "EVEREST APOTHECARY DISPENSARY",
        "Address": "2201 Louisiana, Suite E",
        "City": "ALBUQUERQUE",
        "State": "NM",
        "Zip": "87110",
        "Lat": "35.10412",
        "Long": "-106.56938",
        "TotalMedicalSales": 1068364.61,
        "TotalAdultUseSales": 1894395.76,
        "TotalSalesAll": 2962760.37
    },
    {
        "SalesLicenseeId": "00b06342-5624-4b42-ba4e-8f7d324a48e7",
        "Licensee": "EVEREST APOTHECARY- ALBUQUERQUE DISPENSARY",
        "Address": "4201 Central Avenue NW, Suite B-6",
        "City": "ALBUQUERQUE",
        "State": "NM",
        "Zip": "87105",
        "Lat": "35.08665",
        "Long": "-106.68715",
        "TotalMedicalSales": 769364.87,
        "TotalAdultUseSales": 1123793.66,
        "TotalSalesAll": 1893158.53
    },
    {
        "SalesLicenseeId": "433db4e5-d9dd-45d5-bee1-487e466763aa",
        "Licensee": "EVEREST APOTHECARY/ RETAIL MONTGOMERY BLVD NE",
        "Address": "3504 Montgomery Blvd NE",
        "City": "ALBUQUERQUE",
        "State": "NM",
        "Zip": "87107",
        "Lat": "35.13066",
        "Long": "-106.6062",
        "TotalMedicalSales": 44476.14,
        "TotalAdultUseSales": 82483.69,
        "TotalSalesAll": 126959.83
    },
    {
        "SalesLicenseeId": "d6f55d3e-d1a4-43f4-97cc-bfebb3cbd46b",
        "Licensee": "EVEREST APOTHECARY/ RETAIL S MAIN STREET",
        "Address": "203 S Main St",
        "City": "BELEN",
        "State": "NM",
        "Zip": "87002",
        "Lat": "34.65982",
        "Long": "-106.77768",
        "TotalMedicalSales": 29531.36,
        "TotalAdultUseSales": 31430.58,
        "TotalSalesAll": 60961.94
    },
    {
        "SalesLicenseeId": "0fc621cb-5d24-439d-b34f-f97f9fb47f2a",
        "Licensee": "FACTORY DIRECT PIPES REC - 7TH ST RETAIL",
        "Address": "321 W 7th St Ste B",
        "City": "CLOVIS",
        "State": "NM",
        "Zip": "88101",
        "Lat": "34.40443",
        "Long": "-103.20884",
        "TotalMedicalSales": 2210.64,
        "TotalAdultUseSales": 208637.48,
        "TotalSalesAll": 210848.12
    },
    {
        "SalesLicenseeId": "0351e13f-c328-4ad2-b176-05fb032be120",
        "Licensee": "FAMILY STRAINS 2 LLC - HWY 528 RETAIL",
        "Address": "510 HWY 528 Ste G",
        "City": "BERNALILLO",
        "State": "NM",
        "Zip": "87004",
        "Lat": "35.31833",
        "Long": "-106.57497",
        "TotalMedicalSales": 13102.76,
        "TotalAdultUseSales": 58625.58,
        "TotalSalesAll": 71728.34
    },
    {
        "SalesLicenseeId": "06da2374-f942-408a-9a2a-c8ed0471d67b",
        "Licensee": "FCI OF NEW MEXICO - CERRILLOS RD RETAIL",
        "Address": "3258 Cerrillos Rd",
        "City": "SANTA FE",
        "State": "NM",
        "Zip": "87507",
        "Lat": "35.65069",
        "Long": "-105.99825",
        "TotalMedicalSales": 206274.54,
        "TotalAdultUseSales": 555375.87,
        "TotalSalesAll": 761650.41
    },
    {
        "SalesLicenseeId": "2634d46c-831b-4f67-9ec4-b4140757a394",
        "Licensee": "FCI OF NEW MEXICO - ESPANOLA RETAIL",
        "Address": "419 N Riverside Dr",
        "City": "ESPANOLA",
        "State": "NM",
        "Zip": "87532",
        "Lat": "35.987709",
        "Long": "-106.061802",
        "TotalMedicalSales": 211581.34,
        "TotalAdultUseSales": 516340.08,
        "TotalSalesAll": 727921.42
    },
    {
        "SalesLicenseeId": "07474021-31ed-4530-9803-4a16c07b1c7a",
        "Licensee": "FCI OF NEW MEXICO - EUBANK BLVD RETAIL",
        "Address": "2015 Eubank Blvd NE",
        "City": "ALBUQUERQUE",
        "State": "NM",
        "Zip": "87112",
        "Lat": "35.121251",
        "Long": "-106.533379",
        "TotalMedicalSales": 369202.04,
        "TotalAdultUseSales": 1130470.86,
        "TotalSalesAll": 1499672.9
    },
    {
        "SalesLicenseeId": "0292340c-d65e-4896-b205-9016dc918ab5",
        "Licensee": "FCI OF NEW MEXICO - FARMINGTON RETAIL",
        "Address": "3501 E Main St Ste 1  2",
        "City": "FARMINGTON",
        "State": "NM",
        "Zip": "87402",
        "Lat": "36.730429",
        "Long": "-108.208919",
        "TotalMedicalSales": 77017.56,
        "TotalAdultUseSales": 608852.01,
        "TotalSalesAll": 685869.57
    },
    {
        "SalesLicenseeId": "038b5b1b-355b-4846-91c3-f72cf0c936e4",
        "Licensee": "FCI OF NEW MEXICO - GALLUP RETAIL",
        "Address": "1379 US-491",
        "City": "GALLUP",
        "State": "NM",
        "Zip": "87301",
        "Lat": "35.54611",
        "Long": "-108.75966",
        "TotalMedicalSales": 149217.55,
        "TotalAdultUseSales": 1421041.24,
        "TotalSalesAll": 1570258.79
    },
    {
        "SalesLicenseeId": "0a86c683-185f-4903-9e44-aca7e5bf4f43",
        "Licensee": "FCI OF NEW MEXICO - PICACHO AVE RETAIL",
        "Address": "140 W Picacho Ave Unit C",
        "City": "LAS CRUCES",
        "State": "NM",
        "Zip": "88005",
        "Lat": "32.3171",
        "Long": "-106.7818",
        "TotalMedicalSales": 106684.91,
        "TotalAdultUseSales": 215563.04,
        "TotalSalesAll": 322247.95
    },
    {
        "SalesLicenseeId": "160f8ca8-31e2-4ba2-b4d5-9c661a2d3ac8",
        "Licensee": "FCI OF NEW MEXICO - PRODUCTION",
        "Address": "1319 E Pine St",
        "City": "DEMING",
        "State": "NM",
        "Zip": "88030",
        "Lat": "32.26886",
        "Long": "-107.74384",
        "TotalMedicalSales": 15887.5,
        "TotalAdultUseSales": 0,
        "TotalSalesAll": 15887.5
    },
    {
        "SalesLicenseeId": "0f94b223-f271-4dd8-80c9-83e70b6495c7",
        "Licensee": "FCI OF NEW MEXICO - ROSWELL RETAIL",
        "Address": "2303 N Main St",
        "City": "ROSWELL",
        "State": "NM",
        "Zip": "88201",
        "Lat": "33.42004",
        "Long": "-104.5225",
        "TotalMedicalSales": 171769.33,
        "TotalAdultUseSales": 538892.54,
        "TotalSalesAll": 710661.87
    },
    {
        "SalesLicenseeId": "08c8abb3-01b9-4f94-8fb4-1640018c1cff",
        "Licensee": "FCI OF NEW MEXICO - SAN MATEO BLVD RETAIL",
        "Address": "4000 San Mateo Blvd NE Ste A",
        "City": "ALBUQUERQUE",
        "State": "NM",
        "Zip": "87110",
        "Lat": "35.12669",
        "Long": "-106.58595",
        "TotalMedicalSales": 173222.17,
        "TotalAdultUseSales": 528133.45,
        "TotalSalesAll": 701355.62
    },
    {
        "SalesLicenseeId": "0041d1f0-08fe-49cb-96f3-1eb089d14217",
        "Licensee": "FCI OF NEW MEXICO - TAOS RETAIL",
        "Address": "1128 Paseo del Pueblo Sur",
        "City": "TAOS",
        "State": "NM",
        "Zip": "87571",
        "Lat": "36.381",
        "Long": "-105.58936",
        "TotalMedicalSales": 216851.46,
        "TotalAdultUseSales": 908444.62,
        "TotalSalesAll": 1125296.08
    },
    {
        "SalesLicenseeId": "b3409cd3-0f63-49e7-a0ca-97f2ec685fc5",
        "Licensee": "FIELDS OF DREAMS - SUNLAND PARK RETAIL",
        "Address": "159 Sunland Park Dr",
        "City": "SUNLAND PARK",
        "State": "NM",
        "Zip": "88063",
        "Lat": "31.80275",
        "Long": "-106.56416",
        "TotalMedicalSales": 157,
        "TotalAdultUseSales": 79454.75,
        "TotalSalesAll": 79611.75
    },
    {
        "SalesLicenseeId": "02dbba2a-400b-4c54-9966-77b53c78cc53",
        "Licensee": "FLORA VERDE LLC - MAGUEY CT RETAIL",
        "Address": "100 Maguey Ct",
        "City": "SUNLAND PARK",
        "State": "NM",
        "Zip": "88063",
        "Lat": "31.81139",
        "Long": "-106.59334",
        "TotalMedicalSales": 129416.25,
        "TotalAdultUseSales": 1524735.06,
        "TotalSalesAll": 1654151.31
    },
    {
        "SalesLicenseeId": "1cd7d28b-9a61-433e-8b3e-a1bde0492f96",
        "Licensee": "FLOWERS AND HERB MARKETS INC - SAN PASQUALE RETAIL",
        "Address": "119 San Pasquale Ave SW Ste A",
        "City": "ALBUQUERQUE",
        "State": "NM",
        "Zip": "87104",
        "Lat": "35.091831",
        "Long": "-106.669324",
        "TotalMedicalSales": 50571.64,
        "TotalAdultUseSales": 160257.09,
        "TotalSalesAll": 210828.73
    },
    {
        "SalesLicenseeId": "0a98f4a1-98e3-4f45-9685-271da8ff2143",
        "Licensee": "FLOWERS FLOWERS LC - RETAIL",
        "Address": "700 E 1st St Space 748",
        "City": "ALAMOGORDO",
        "State": "NM",
        "Zip": "88310",
        "Lat": "32.88921",
        "Long": "-105.95451",
        "TotalMedicalSales": 100880.9,
        "TotalAdultUseSales": 203049.66,
        "TotalSalesAll": 303930.56
    },
    {
        "SalesLicenseeId": "485ecea9-a643-4e27-9cd6-f840e0ab2dd5",
        "Licensee": "FLY HIGH NEW MEXICO LLC/ RETAIL SAN MATEO BLVD NE STE C",
        "Address": "4001 San Mateo Blvd NE STE C",
        "City": "ALBUQUERQUE",
        "State": "NM",
        "Zip": "87110",
        "Lat": "35.12682",
        "Long": "-106.5869",
        "TotalMedicalSales": 153261.2,
        "TotalAdultUseSales": 329237.15,
        "TotalSalesAll": 482498.35
    },
    {
        "SalesLicenseeId": "1efbf95e-7825-455c-9031-592af3b39f34",
        "Licensee": "FORT TWENTY CANNABIS COMPANY LLC - JEFFERSON ST RETAIL",
        "Address": "7600 Jefferson St NE Ste 6",
        "City": "ALBUQUERQUE",
        "State": "NM",
        "Zip": "87109",
        "Lat": "35.142281",
        "Long": "-106.595766",
        "TotalMedicalSales": 112604.24,
        "TotalAdultUseSales": 279583.21,
        "TotalSalesAll": 392187.45
    },
    {
        "SalesLicenseeId": "24c91034-cc6f-4860-9e53-b4faba8da64f",
        "Licensee": "FRATELLI INVESTMENT GROUP LLC - SOLANO DR RETAIL",
        "Address": "908 S Solano Dr",
        "City": "LAS CRUCES",
        "State": "NM",
        "Zip": "88001",
        "Lat": "32.30352",
        "Long": "-106.7638",
        "TotalMedicalSales": 27551.58,
        "TotalAdultUseSales": 95028.22,
        "TotalSalesAll": 122579.8
    },
    {
        "SalesLicenseeId": "01120c80-8a6a-472b-9332-9717a658d512",
        "Licensee": "FRESHBUDZ LLC - RIVERSIDE DR RETAIL",
        "Address": "1811 N Riverside Dr Ste A",
        "City": "ESPANOLA",
        "State": "NM",
        "Zip": "87532",
        "Lat": "36.01892",
        "Long": "-106.06365",
        "TotalMedicalSales": 355459.99,
        "TotalAdultUseSales": 668679.22,
        "TotalSalesAll": 1024139.21
    },
    {
        "SalesLicenseeId": "13fe87ce-e1f6-4764-9c2b-07a18223e4ea",
        "Licensee": "FRUIT OF THE EARTH ORGANICS PROCESSING",
        "Address": "815 C Early Street",
        "City": "SANTA FE",
        "State": "NM",
        "Zip": "87505",
        "Lat": "35.678316",
        "Long": "-105.952308",
        "TotalMedicalSales": 15552,
        "TotalAdultUseSales": 0,
        "TotalSalesAll": 15552
    },
    {
        "SalesLicenseeId": "0a847299-02ab-4a63-b30c-8af07498dfcc",
        "Licensee": "FRUIT OF THE EARTH ORGANICS-DISPENSARY",
        "Address": "901 Early Street",
        "City": "SANTA FE",
        "State": "NM",
        "Zip": "87505",
        "Lat": "35.67639",
        "Long": "-105.95201",
        "TotalMedicalSales": 2916030.75,
        "TotalAdultUseSales": 1462109.23,
        "TotalSalesAll": 4378139.98
    },
    {
        "SalesLicenseeId": "47fcc26d-8225-4634-a954-86df49531499",
        "Licensee": "GAIA TRADERS - RUFINA RETAIL",
        "Address": "1330 Rufina Circle",
        "City": "SANTA FE",
        "State": "NM",
        "Zip": "87507",
        "Lat": "35.654071",
        "Long": "-105.995537",
        "TotalMedicalSales": 53968.8,
        "TotalAdultUseSales": 219248.4,
        "TotalSalesAll": 273217.2
    },
    {
        "SalesLicenseeId": "0a27c404-5479-4b9a-85e0-ca414c14e2d4",
        "Licensee": "GALLEGOS  RHODES ENTERPRISES LLC - KENT AVE RETAIL",
        "Address": "1125 Kent Ave NW",
        "City": "ALBUQUERQUE",
        "State": "NM",
        "Zip": "87102",
        "Lat": "35.08797",
        "Long": "-106.66037",
        "TotalMedicalSales": 145459.29,
        "TotalAdultUseSales": 503065.17,
        "TotalSalesAll": 648524.43
    },
    {
        "SalesLicenseeId": "7e0a2ca8-f8d9-49e1-b890-d812a01d0912",
        "Licensee": "GH LLC",
        "Address": "601 Paragon",
        "City": "ALBUQUERQUE",
        "State": "NM",
        "Zip": "87105",
        "Lat": "35.125806",
        "Long": "-106.664999",
        "TotalMedicalSales": 320151.66,
        "TotalAdultUseSales": 562624.6,
        "TotalSalesAll": 882776.26
    },
    {
        "SalesLicenseeId": "05816501-21c7-4ddc-a4c5-81dfed5ea96a",
        "Licensee": "GH LLC",
        "Address": "2621 Wyoming",
        "City": "ALBUQUERQUE",
        "State": "NM",
        "Zip": "87112",
        "Lat": "35.11584",
        "Long": "-106.55129",
        "TotalMedicalSales": 439446.45,
        "TotalAdultUseSales": 763678.81,
        "TotalSalesAll": 1203125.26
    },
    {
        "SalesLicenseeId": "5bec24ed-0dab-47f9-a32e-67ea771f0479",
        "Licensee": "GNOMAD LLC - GRIMES ST RETAIL",
        "Address": "3501 N Grimes St Ste 100",
        "City": "HOBBS",
        "State": "NM",
        "Zip": "88240",
        "Lat": "32.73811",
        "Long": "-103.14502",
        "TotalMedicalSales": 111428.78,
        "TotalAdultUseSales": 392098.3,
        "TotalSalesAll": 503527.08
    },
    {
        "SalesLicenseeId": "06d6d287-354f-402b-b7c7-7d5c10148303",
        "Licensee": "GNOMAD LLC-BROADWAY RETAIL",
        "Address": "223 West Broadway Ste A",
        "City": "TATUM",
        "State": "NM",
        "Zip": "88267",
        "Lat": "33.25682",
        "Long": "-103.31589",
        "TotalMedicalSales": 162147.04,
        "TotalAdultUseSales": 825942.33,
        "TotalSalesAll": 988089.36
    },
    {
        "SalesLicenseeId": "4820f4e3-179c-4831-8e24-17bd96a452a6",
        "Licensee": "GO GREEN CANNABIS COMPANY - RETAIL",
        "Address": "3856 Morningstar Dr",
        "City": "FARMINGTON",
        "State": "NM",
        "Zip": "87401",
        "Lat": "36.73414",
        "Long": "-108.16034",
        "TotalMedicalSales": 0,
        "TotalAdultUseSales": 6341.74,
        "TotalSalesAll": 6341.74
    },
    {
        "SalesLicenseeId": "01de83ba-7837-4b07-b518-435a1d12a2ce",
        "Licensee": "GOLDEN-ROOTS LLC - OLD COORS DR RETAIL",
        "Address": "806 Old Coors Dr SW Ste D",
        "City": "ALBUQUERQUE",
        "State": "NM",
        "Zip": "87121",
        "Lat": "35.0714",
        "Long": "-106.69911",
        "TotalMedicalSales": 415392.07,
        "TotalAdultUseSales": 673957.46,
        "TotalSalesAll": 1089349.53
    },
    {
        "SalesLicenseeId": "189feded-7c98-464d-bf80-2c2885ca8ec6",
        "Licensee": "GOT GREENS LLC - CORRALES RD RETAIL",
        "Address": "10200 Corrales Rd NW Ste E-2",
        "City": "ALBUQUERQUE",
        "State": "NM",
        "Zip": "87114",
        "Lat": "35.20306",
        "Long": "-106.64579",
        "TotalMedicalSales": 88771.36,
        "TotalAdultUseSales": 179884.11,
        "TotalSalesAll": 268655.47
    },
    {
        "SalesLicenseeId": "195b7784-f633-45b1-adc2-6cfc39d6e9ee",
        "Licensee": "GRADYS - RETAIL",
        "Address": "111 N Main",
        "City": "AZTEC",
        "State": "NM",
        "Zip": "87410",
        "Lat": "36.822063",
        "Long": "-107.992899",
        "TotalMedicalSales": 98471.03,
        "TotalAdultUseSales": 523741.84,
        "TotalSalesAll": 622212.87
    },
    {
        "SalesLicenseeId": "0ea1b748-5c95-48ad-a2fa-c3fed1367e58",
        "Licensee": "GRANDMAS POT SHOP LLC - PERALTA",
        "Address": "2 Valencia Rd",
        "City": "PERALTA",
        "State": "NM",
        "Zip": "87042",
        "Lat": "34.81524",
        "Long": "-106.69502",
        "TotalMedicalSales": 91980.33,
        "TotalAdultUseSales": 231577.21,
        "TotalSalesAll": 323557.54
    },
    {
        "SalesLicenseeId": "06fae3a5-4e25-4b4c-aa46-3f627a35fdbf",
        "Licensee": "GRASSROOTS GRANTS LLC DISPENSARY GALLUP",
        "Address": "3400 East Hwy 66",
        "City": "GALLUP",
        "State": "NM",
        "Zip": "87301",
        "Lat": "35.50481",
        "Long": "-108.83635",
        "TotalMedicalSales": 258184.09,
        "TotalAdultUseSales": 748188.5,
        "TotalSalesAll": 1006372.59
    },
    {
        "SalesLicenseeId": "227411ce-e017-4b49-8496-b59568245f00",
        "Licensee": "GRASSROOTS RX DISPENSARY",
        "Address": "1005 Mesa Blvd.",
        "City": "GRANTS",
        "State": "NM",
        "Zip": "87357",
        "Lat": "35.160449",
        "Long": "-107.834061",
        "TotalMedicalSales": 251504.46,
        "TotalAdultUseSales": 445701.36,
        "TotalSalesAll": 697205.82
    },
    {
        "SalesLicenseeId": "0a6d1622-2541-4de1-aab0-af57191b1346",
        "Licensee": "GRASSROOTS RX DISPENSARY ALBUQUERQUE",
        "Address": "3620 Bosque Plaza Lane NW",
        "City": "ALBUQUERQUE",
        "State": "NM",
        "Zip": "87120",
        "Lat": "35.158592",
        "Long": "-106.678019",
        "TotalMedicalSales": 317344.88,
        "TotalAdultUseSales": 420994.18,
        "TotalSalesAll": 738339.06
    },
    {
        "SalesLicenseeId": "46d87041-3551-48e4-bf78-e0bdecaabd4e",
        "Licensee": "GRASSROOTS RX DISPENSARY ALBUQUERQUE",
        "Address": "3701 San Mateo Blvd. NE",
        "City": "ALBUQUERQUE",
        "State": "NM",
        "Zip": "87110",
        "Lat": "35.116409",
        "Long": "-106.586451",
        "TotalMedicalSales": 54887.62,
        "TotalAdultUseSales": 66006.62,
        "TotalSalesAll": 120894.24
    },
    {
        "SalesLicenseeId": "4d1e5615-c8f0-470c-bbf6-a279edd5d6b0",
        "Licensee": "GREEN FUEGO/ RETAIL MALLARD WAY B",
        "Address": "7502 Mallard Way B",
        "City": "SANTA FE",
        "State": "NM",
        "Zip": "87507",
        "Lat": "35.63553",
        "Long": "-106.06538",
        "TotalMedicalSales": 79237.06,
        "TotalAdultUseSales": 190441.71,
        "TotalSalesAll": 269678.76
    },
    {
        "SalesLicenseeId": "8833c2ac-d573-4074-8c3b-f93aa28e93c1",
        "Licensee": "GREEN LIGHT MULTIFACTOR LLC - CAMINO POLVOSO RETAIL",
        "Address": "2105 Camino Polvoso",
        "City": "SANTA FE",
        "State": "NM",
        "Zip": "87507",
        "Lat": "35.65589",
        "Long": "-106.01815",
        "TotalMedicalSales": 973.68,
        "TotalAdultUseSales": 3991.57,
        "TotalSalesAll": 4965.25
    },
    {
        "SalesLicenseeId": "13f5cb8f-0e03-4a94-9d30-64ac4e903aaa",
        "Licensee": "GREEN MINDED HOLDINGS LLC",
        "Address": "6505 US Highway 380",
        "City": "CARRIZOZO",
        "State": "NM",
        "Zip": "88301",
        "Lat": "33.65033",
        "Long": "-105.87703",
        "TotalMedicalSales": 36670.39,
        "TotalAdultUseSales": 89367.61,
        "TotalSalesAll": 126038
    },
    {
        "SalesLicenseeId": "3161bd3e-dc25-4e6d-b885-e89fa7fda929",
        "Licensee": "GREEN MINDED HOLDINGS LLC",
        "Address": "2330 Sudderth Dr",
        "City": "RUIDOSO",
        "State": "NM",
        "Zip": "88345",
        "Lat": "33.33139",
        "Long": "-105.6697",
        "TotalMedicalSales": 31902.98,
        "TotalAdultUseSales": 319852.38,
        "TotalSalesAll": 351755.36
    },
    {
        "SalesLicenseeId": "05209ba3-703c-41ac-9fa0-75b9145cd9a7",
        "Licensee": "GREEN MINDED HOLDINGS LLC",
        "Address": "2330 Sudderth Drive",
        "City": "RUIDOSO",
        "State": "NM",
        "Zip": "88345",
        "Lat": "33.33139",
        "Long": "-105.6697",
        "TotalMedicalSales": 37953,
        "TotalAdultUseSales": 394125.5,
        "TotalSalesAll": 432078.5
    },
    {
        "SalesLicenseeId": "0fba077b-45e6-4881-bc6b-caf09424113d",
        "Licensee": "GREEN MINDED HOLDINGS LLC",
        "Address": "876 Highway 48",
        "City": "ALTO",
        "State": "NM",
        "Zip": "88312",
        "Lat": "35.978924",
        "Long": "-105.308068",
        "TotalMedicalSales": 137458.92,
        "TotalAdultUseSales": 633889.15,
        "TotalSalesAll": 771348.07
    },
    {
        "SalesLicenseeId": "0742f8ab-ac4d-4545-9a65-51e1694b6a3f",
        "Licensee": "GREEN REMEDY ENTERPRISES LLC - SOLANO",
        "Address": "590 S Solano",
        "City": "LAS CRUCES",
        "State": "NM",
        "Zip": "88001",
        "Lat": "32.30809",
        "Long": "-106.76516",
        "TotalMedicalSales": 17037.39,
        "TotalAdultUseSales": 63109.25,
        "TotalSalesAll": 80146.64
    },
    {
        "SalesLicenseeId": "05b39ae5-4d01-4b61-be14-ec3848c40fd3",
        "Licensee": "GREEN REMEDY ENTERPRISES LLC - SOLANO",
        "Address": "590 S Solano STE C",
        "City": "LAS CRUCES",
        "State": "NM",
        "Zip": "88001",
        "Lat": "32.30809",
        "Long": "-106.76516",
        "TotalMedicalSales": 19103.67,
        "TotalAdultUseSales": 90131.3,
        "TotalSalesAll": 109234.97
    },
    {
        "SalesLicenseeId": "4b2d4a5f-724b-4f24-8a6e-b43eabef4be1",
        "Licensee": "GREEN THERAPY DISPENSARY, LLC",
        "Address": "460 County Line Drive, Space F",
        "City": "CHAPARRAL",
        "State": "NM",
        "Zip": "88081",
        "Lat": "32.03179",
        "Long": "-106.37773",
        "TotalMedicalSales": 68790.2,
        "TotalAdultUseSales": 711051.42,
        "TotalSalesAll": 779841.62
    },
    {
        "SalesLicenseeId": "63955635-8346-48d5-956c-0df560b047d6",
        "Licensee": "GREENGO NM - ANTHONY DR RETAIL",
        "Address": "816 Anthony Dr",
        "City": "ANTHONY",
        "State": "NM",
        "Zip": "88021",
        "Lat": "32.00726",
        "Long": "-106.6062",
        "TotalMedicalSales": 10648.84,
        "TotalAdultUseSales": 35303.67,
        "TotalSalesAll": 45952.51
    },
    {
        "SalesLicenseeId": "1b3a65fc-35ed-4ebb-8e63-cd5a98d99ad5",
        "Licensee": "GREENGO NM - LOHMAN AVE RETAIL",
        "Address": "2000 E Lohman Ave Ste E",
        "City": "LAS CRUCES",
        "State": "NM",
        "Zip": "88001",
        "Lat": "32.31091",
        "Long": "-106.75653",
        "TotalMedicalSales": 96500.59,
        "TotalAdultUseSales": 383545.75,
        "TotalSalesAll": 480046.34
    },
    {
        "SalesLicenseeId": "3af5c494-2252-4380-978a-0a9f40c989e8",
        "Licensee": "GREY MOON OPERATIONS LLC - RETAIL",
        "Address": "3411 NM-18",
        "City": "JAL",
        "State": "NM",
        "Zip": "88252",
        "Lat": "32.11198",
        "Long": "-103.18771",
        "TotalMedicalSales": 17894.91,
        "TotalAdultUseSales": 314071.66,
        "TotalSalesAll": 331966.57
    },
    {
        "SalesLicenseeId": "266b9a04-3908-40ba-91a4-4dfe5ac15c06",
        "Licensee": "GURVITZ WHITE - HWY 70 RETAIL",
        "Address": "26321 US Hwy 70",
        "City": "RUIDOSO",
        "State": "NM",
        "Zip": "88345",
        "Lat": "33.33557",
        "Long": "-105.58155",
        "TotalMedicalSales": 956.89,
        "TotalAdultUseSales": 6044.39,
        "TotalSalesAll": 7001.28
    },
    {
        "SalesLicenseeId": "0478b7b4-d7d8-41f0-a551-e87ba6925414",
        "Licensee": "GURVITZ WHITE - SUDDERTH RETAIL",
        "Address": "2809 Sudderth",
        "City": "RUIDOSO",
        "State": "NM",
        "Zip": "88345",
        "Lat": "33.33326",
        "Long": "-105.67971",
        "TotalMedicalSales": 2809.03,
        "TotalAdultUseSales": 17549.24,
        "TotalSalesAll": 20358.27
    },
    {
        "SalesLicenseeId": "2082fb7a-733d-4ad4-971e-eab47765d4d6",
        "Licensee": "H2H DISTRIBUTION LLC",
        "Address": "300 San Mateo Blvd SE",
        "City": "ALBUQUERQUE",
        "State": "NM",
        "Zip": "87108",
        "Lat": "35.075751",
        "Long": "-106.58633",
        "TotalMedicalSales": 211142.87,
        "TotalAdultUseSales": 721343.72,
        "TotalSalesAll": 932486.59
    },
    {
        "SalesLicenseeId": "0487f8d5-cde1-4543-814a-d8889c1de6af",
        "Licensee": "H2H DISTRIBUTION LLC - 2400 JUAN TABO RETAILER",
        "Address": "2400 Juan Tabo Blvd NE Suite B",
        "City": "ALBUQUERQUE",
        "State": "NM",
        "Zip": "87112",
        "Lat": "35.10926",
        "Long": "-106.51504",
        "TotalMedicalSales": 42833.04,
        "TotalAdultUseSales": 151482.43,
        "TotalSalesAll": 194315.47
    },
    {
        "SalesLicenseeId": "45ad529f-e834-4838-b684-ae88de2cdd9e",
        "Licensee": "H2H DISTRIBUTION LLC -1300 JUAN TABO RETAIL",
        "Address": "1300 Juan Tabo NE Ste C",
        "City": "ALBUQUERQUE",
        "State": "NM",
        "Zip": "87112",
        "Lat": "35.09394",
        "Long": "-106.51501",
        "TotalMedicalSales": 1518.24,
        "TotalAdultUseSales": 5515.6,
        "TotalSalesAll": 7033.84
    },
    {
        "SalesLicenseeId": "5f12568d-de1a-4d74-9164-39a01309e6d5",
        "Licensee": "HAPPY HERB LLC/ RETAIL HWY 180 SUITE 300",
        "Address": "2005 Hwy 180 Suite 300",
        "City": "SILVER CITY",
        "State": "NM",
        "Zip": "88061",
        "Lat": "32.78787",
        "Long": "-108.25469",
        "TotalMedicalSales": 34050.95,
        "TotalAdultUseSales": 40206.79,
        "TotalSalesAll": 74257.74
    },
    {
        "SalesLicenseeId": "26d4397d-f83b-4591-a686-91ed61817ca4",
        "Licensee": "HAPPY SMILES LLC -610 RETAIL",
        "Address": "610 E Kansas Ave",
        "City": "JAL",
        "State": "NM",
        "Zip": "88252",
        "Lat": "32.12029",
        "Long": "-103.18678",
        "TotalMedicalSales": 8.93,
        "TotalAdultUseSales": 86327.99,
        "TotalSalesAll": 86336.92
    },
    {
        "SalesLicenseeId": "02022cd9-3eb7-4227-ba91-d04af425e85d",
        "Licensee": "HAPPYDAZE LLC",
        "Address": "5000 Jefferson St NE",
        "City": "ALBUQUERQUE",
        "State": "NM",
        "Zip": "87109",
        "Lat": "35.14014",
        "Long": "-106.5928",
        "TotalMedicalSales": 156172.85,
        "TotalAdultUseSales": 376880.65,
        "TotalSalesAll": 533053.5
    },
    {
        "SalesLicenseeId": "32be7d86-575b-4793-a748-1b5722ef2982",
        "Licensee": "HARETO LLC",
        "Address": "8493 S Main St Suite 1",
        "City": "MESILLA PARK",
        "State": "NM",
        "Zip": "88047",
        "Lat": "32.20182",
        "Long": "-106.71961",
        "TotalMedicalSales": 2685.92,
        "TotalAdultUseSales": 6612.18,
        "TotalSalesAll": 9298.1
    },
    {
        "SalesLicenseeId": "0472979f-dfba-4b79-aff5-a44acc97cadd",
        "Licensee": "HARVEST FOUNDATION",
        "Address": "150 South St. Francis Drive",
        "City": "SANTA FE",
        "State": "NM",
        "Zip": "87501",
        "Lat": "35.68804",
        "Long": "-105.95452",
        "TotalMedicalSales": 351603.14,
        "TotalAdultUseSales": 401367.17,
        "TotalSalesAll": 752970.31
    },
    {
        "SalesLicenseeId": "10ad9548-b977-4694-ae2b-8487b5dc74e9",
        "Licensee": "HARVEST FOUNDATION - SUDDERTH DR",
        "Address": "925 Sudderth Dr",
        "City": "RUIDOSO",
        "State": "NM",
        "Zip": "88345",
        "Lat": "33.32455",
        "Long": "-105.65795",
        "TotalMedicalSales": 87626.57,
        "TotalAdultUseSales": 121529.6,
        "TotalSalesAll": 209156.17
    },
    {
        "SalesLicenseeId": "083362f0-6eaf-4292-bbb4-722fac9c40a4",
        "Licensee": "HARVEST FOUNDATION ALBUQUERQUE DISPENSARY",
        "Address": "220 Copper Avenue NW, Suite 110, Unit 4",
        "City": "ALBUQUERQUE",
        "State": "NM",
        "Zip": "87102",
        "Lat": "35.086165",
        "Long": "-106.65618",
        "TotalMedicalSales": 864854.75,
        "TotalAdultUseSales": 665163.67,
        "TotalSalesAll": 1530018.42
    },
    {
        "SalesLicenseeId": "17c6e588-851c-4ff7-90d4-674b6108bf84",
        "Licensee": "HASHEESH LLC/ RETAIL E AMADOR SUITE A",
        "Address": "1021 E Amador Suite A",
        "City": "LAS CRUCES",
        "State": "NM",
        "Zip": "88001",
        "Lat": "32.30952",
        "Long": "-106.76765",
        "TotalMedicalSales": 725.8,
        "TotalAdultUseSales": 5520.9,
        "TotalSalesAll": 6246.7
    },
    {
        "SalesLicenseeId": "15163071-17e2-4cda-b078-993c53ee7b59",
        "Licensee": "HASHTAG CANNABIS LLC - RETAIL",
        "Address": "2460 Missouri Ave",
        "City": "LAS CRUCES",
        "State": "NM",
        "Zip": "88001",
        "Lat": "32.29827",
        "Long": "-106.74309",
        "TotalMedicalSales": 267279.82,
        "TotalAdultUseSales": 669379.37,
        "TotalSalesAll": 936659.19
    },
    {
        "SalesLicenseeId": "5e38c341-ba5e-4386-a72e-e1be50719bf1",
        "Licensee": "HAT CREEK CANNABIS CAFE - CANYON ST CONSUMPTION",
        "Address": "327 S Canyon St",
        "City": "CARLSBAD",
        "State": "NM",
        "Zip": "88220",
        "Lat": "32.41697",
        "Long": "-104.22788",
        "TotalMedicalSales": 104,
        "TotalAdultUseSales": 194,
        "TotalSalesAll": 298
    },